asset_id,asset_name,company_name,parent_name,country,sector,latitude,longitude,uid
25494420,Patos-Marinza,Geo-Jade Petroleum,Geo-Jade Petroleum,ALB,oil-and-gas-production-and-transport,40.7705,19.6434,0
25494150,El Mangrullo,Pampa Energia,Pampa Energia,ARG,oil-and-gas-production-and-transport,-38.5468,-69.4876,1
25494152,El Porton,YPF,YPF,ARG,oil-and-gas-production-and-transport,-37.1222,-69.6575,2
25494302,LomaLata,YPF,YPF,ARG,oil-and-gas-production-and-transport,-38.4593,-68.7088,3
25494304,Los Perales,YPF,YPF,ARG,oil-and-gas-production-and-transport,-46.1556,-69.1997,4
25494322,Manantiales Behr,YPF,YPF,ARG,oil-and-gas-production-and-transport,-45.6348,-67.957,5
25494207,Guneshli,Socar,Socar,AZE,oil-and-gas-production-and-transport,40.1526,51.1048,6
25494053,Bibiyana,Chevron,Chevron,BGD,oil-and-gas-production-and-transport,24.7,91.38,7
25494242,Jalalabad,Chevron,Chevron,BGD,oil-and-gas-production-and-transport,24.9274,91.9096,8
25494590,Tyulenovo,OGEP Bulgaria,OGEP Bulgaria,BGR,oil-and-gas-production-and-transport,43.525,28.5875,9
25494270,Khuff Gas,Tatweer Petroleum,Tatweer Petroleum,BHR,oil-and-gas-production-and-transport,26.038,50.539,10
25494335,Mauddud,Tatweer Petroleum,Tatweer Petroleum,BHR,oil-and-gas-production-and-transport,26.0333,50.532,11
25494536,Spanish Lookout,Belize Natural Energy,Belize Natural Energy,BLZ,oil-and-gas-production-and-transport,17.2467,-88.9994,12
25494035,Baleia Azul,Petrobras,Petrobras,BRA,oil-and-gas-production-and-transport,-21.339,-40.001,13
25494175,Frade,PRIO,PRIO,BRA,oil-and-gas-production-and-transport,-21.8757,-39.842,14
25494249,Jubarte,Petrobras,Petrobras,BRA,oil-and-gas-production-and-transport,-21.2494,-40.0503,15
25494330,Marlim,Petrobras,Petrobras,BRA,oil-and-gas-production-and-transport,-22.507,-40.0264,16
25494346,Mexilhao,Petrobras,Petrobras,BRA,oil-and-gas-production-and-transport,-24.4878,-44.1504,17
25494174,Foster Creek,Cenovus Energy,Cenovus Energy,CAN,oil-and-gas-production-and-transport,55.0607,-110.459,18
25494225,Horizon,Canadian Natural Resources,Canadian Natural Resources,CAN,oil-and-gas-production-and-transport,57.3937,-111.7624,19
25494240,Jackfish,Canadian Natural Resources,Canadian Natural Resources,CAN,oil-and-gas-production-and-transport,55.5237,-110.9803,20
25494440,Primrose,Canadian Natural Resources,Canadian Natural Resources,CAN,oil-and-gas-production-and-transport,54.8496,-110.5122,21
25494112,Cullen,ENAP Sipetrol,ENAP Sipetrol,CHL,oil-and-gas-production-and-transport,-52.982,-68.73,22
25494123,Daniel,ENAP Sipetrol,ENAP Sipetrol,CHL,oil-and-gas-production-and-transport,-52.3368,-68.6932,23
25494008,Ansai,PetroChina,PetroChina,CHN,oil-and-gas-production-and-transport,36.8912,109.1482,24
25494092,Changning Shale Gas,PetroChina,PetroChina,CHN,oil-and-gas-production-and-transport,29.3957,104.9568,25
25494093,Changqing,PetroChina,PetroChina,CHN,oil-and-gas-production-and-transport,37.2891,109.0455,26
25494097,Chengdao,Sinopec,Sinopec,CHN,oil-and-gas-production-and-transport,38.2654,118.7814,27
25494122,Dangang,PetroChina,PetroChina,CHN,oil-and-gas-production-and-transport,38.6514,117.4497,28
25494168,Fengchen,Sinopec,Sinopec,CHN,oil-and-gas-production-and-transport,45.1,84.64,29
25494178,Fuling,Sinopec,Sinopec,CHN,oil-and-gas-production-and-transport,29.74,107.6,30
25494221,Hetianhe,PetroChina,PetroChina,CHN,oil-and-gas-production-and-transport,38.5694,80.7236,31
25494226,Huizhou,CNOOC,CNOOC,CHN,oil-and-gas-production-and-transport,21.2028,115.0361,32
25494266,Keshen,PetroChina,PetroChina,CHN,oil-and-gas-production-and-transport,41.9244,82.1299,33
25494444,Puguang,Sinopec,Sinopec,CHN,oil-and-gas-production-and-transport,31.5314,107.7632,34
25494449,Qinghai-Sebei,PetroChina,PetroChina,CHN,oil-and-gas-production-and-transport,37.3377,94.1337,35
25494517,Shengli,Sinopec,Sinopec,CHN,oil-and-gas-production-and-transport,37.1771,118.4754,36
25494521,Siwujiazi (Jilin),PetroChina,PetroChina,CHN,oil-and-gas-production-and-transport,43.7965,124.5063,37
25494542,Suizhong,CNOOC,CNOOC,CHN,oil-and-gas-production-and-transport,39.9501,120.836,38
25494550,Tahe,Sinopec,Sinopec,CHN,oil-and-gas-production-and-transport,41.1599,83.8913,39
25494561,Tarim,PetroChina,PetroChina,CHN,oil-and-gas-production-and-transport,40.9466,82.2528,40
25494630,Weiyuan shale gas,PetroChina,PetroChina,CHN,oil-and-gas-production-and-transport,29.5942,104.3973,41
25494640,Xifeng,PetroChina,PetroChina,CHN,oil-and-gas-production-and-transport,35.7341,107.8826,42
25494641,Xingiang-Karamay,PetroChina,PetroChina,CHN,oil-and-gas-production-and-transport,46.0019,85.9836,43
25494648,Yanan,Shaanxi Yanchang Petroleum (Group),Shaanxi Yanchang Petroleum (Group),CHN,oil-and-gas-production-and-transport,39.1,110.1,44
25494655,Yuanba,Sinopec,Sinopec,CHN,oil-and-gas-production-and-transport,31.46,106.02,45
25494347,Mibale,Perenco,Perenco,COD,oil-and-gas-production-and-transport,-5.8289,12.2074,46
25494580,Tshiala,Perenco,Perenco,COD,oil-and-gas-production-and-transport,-5.9404,12.2198,47
25494087,Castilla,Ecopetrol,Colombia Ministry of Mines and Energy,COL,oil-and-gas-production-and-transport,3.853,-73.6549,48
25494099,Chichimene,Ecopetrol,Colombia Ministry of Mines and Energy,COL,oil-and-gas-production-and-transport,3.9297,-73.6983,49
25494102,Chuchupa,Ecopetrol,Colombia Ministry of Mines and Energy,COL,oil-and-gas-production-and-transport,11.8234,-72.8427,50
25494114,Cupiagua,Ecopetrol,Colombia Ministry of Mines and Energy,COL,oil-and-gas-production-and-transport,5.2301,-72.6179,51
25494470,Rubiales,Ecopetrol,Colombia Ministry of Mines and Energy,COL,oil-and-gas-production-and-transport,3.8077,-71.3983,52
25494506,Seboruco,Cupet,Cupet,CUB,oil-and-gas-production-and-transport,23.133,-81.643,53
25494611,Varadero,Cupet,Cupet,CUB,oil-and-gas-production-and-transport,23.0978,-81.2594,54
25494623,Voelkersen,Wintershall Dea,Wintershall Dea,DEU,oil-and-gas-production-and-transport,52.9901,9.2326,55
25494183,Gassi Touil,Sonatrach,Sonatrach,DZA,oil-and-gas-production-and-transport,30.2714,6.4155,56
25494215,Hassi Messaoud,Sonatrach,Sonatrach,DZA,oil-and-gas-production-and-transport,31.608,5.923,57
25494216,Hassi R'Mel,Sonatrach,Sonatrach,DZA,oil-and-gas-production-and-transport,32.7551,3.261,58
25494398,Ohanet,Sonatrach,Sonatrach,DZA,oil-and-gas-production-and-transport,28.6955,8.7174,59
25494462,Rhourde El Klef,Sonatrach,Sonatrach,DZA,oil-and-gas-production-and-transport,30.1416,6.3134,60
25494002,Amistad,Petroecuador,Petroecuador,ECU,oil-and-gas-production-and-transport,-3.2652,-80.4735,61
25494024,Auca,Petroecuador,Petroecuador,ECU,oil-and-gas-production-and-transport,-0.6926,-76.8833,62
25494116,Cuyabeno,Petroecuador,Petroecuador,ECU,oil-and-gas-production-and-transport,0.003,-76.2572,63
25494407,Oso-EC,Petroecuador,Petroecuador,ECU,oil-and-gas-production-and-transport,-0.7079,-77.1472,64
25494477,Sacha,Petroecuador,Petroecuador,ECU,oil-and-gas-production-and-transport,-0.3125,-76.8575,65
25494518,Shushufindi,Petroecuador,Petroecuador,ECU,oil-and-gas-production-and-transport,-0.1667,-76.6333,66
25494557,Tambococha,Petroecuador,Petroecuador,ECU,oil-and-gas-production-and-transport,-0.9161,-75.6022,67
25493999,Amal,PICO Cheiron Group,PICO Cheiron Group,EGY,oil-and-gas-production-and-transport,28.0728,33.5694,68
25494399,Ojamaa,Viru Keemia Grupp AS,Viru Keemia Grupp AS,EST,oil-and-gas-production-and-transport,59.3715,26.9495,69
25494088,Cazaux,Vermilion Energy,Vermilion Energy,FRA,oil-and-gas-production-and-transport,44.5407,-1.1819,70
25494091,Champotran,Vermilion Energy,Vermilion Energy,FRA,oil-and-gas-production-and-transport,48.7057,3.1057,71
25494313,Magnus,EnQuest,EnQuest,GBR,oil-and-gas-production-and-transport,61.6157,1.2839,72
25494489,Samgori,Block Energy,Block Energy,GEO,oil-and-gas-production-and-transport,41.7065,45.1194,73
25494441,Prinos,Energean Oil & Gas,Energean Oil & Gas,GRC,oil-and-gas-production-and-transport,40.8059,24.495,74
25494638,Xan,Perenco,Perenco,GTM,oil-and-gas-production-and-transport,17.5299,-90.7847,75
25494236,Ivana,INA,INA,HRV,oil-and-gas-production-and-transport,44.7399,13.262,76
25494358,Molve,INA,INA,HRV,oil-and-gas-production-and-transport,46.0967,17.0436,77
25494372,Mumbai High,ONGC,ONGC,IND,oil-and-gas-production-and-transport,19.428,71.3874,78
25494417,Panna Mukta,ONGC,ONGC,IND,oil-and-gas-production-and-transport,19.26,72.12,79
25494613,Vasai,ONGC,ONGC,IND,oil-and-gas-production-and-transport,19.0875,72.0339,80
25494089,Cellino,Eni,Eni,ITA,oil-and-gas-production-and-transport,42.6167,13.8692,81
25494465,Risha,National Petroleum,National Petroleum,JOR,oil-and-gas-production-and-transport,32.5722,39.0358,82
25494350,Minami,Inpex,Inpex,JPN,oil-and-gas-production-and-transport,37.8391,139.1646,83
25493972,Abduliyah,Kuwait Petroleum,Kuwait Petroleum,KWT,oil-and-gas-production-and-transport,29.0973,47.6747,84
25494130,Dharif,Kuwait Petroleum,Kuwait Petroleum,KWT,oil-and-gas-production-and-transport,29.2145,47.7589,85
25494196,Greater Burgan,Kuwait Petroleum,Kuwait Petroleum,KWT,oil-and-gas-production-and-transport,28.9167,47.9333,86
25494349,Minagish,Kuwait Petroleum,Kuwait Petroleum,KWT,oil-and-gas-production-and-transport,29.0241,47.5354,87
25494389,North Kuwait,Kuwait Petroleum,Kuwait Petroleum,KWT,oil-and-gas-production-and-transport,29.8767,47.6991,88
25494453,Rahiya-Mutriba-Umm Niga (Jurassic fields- EPF 50),Kuwait Petroleum,Kuwait Petroleum,KWT,oil-and-gas-production-and-transport,29.8876,47.4213,89
25494458,Raudhatain,Kuwait Petroleum,Kuwait Petroleum,KWT,oil-and-gas-production-and-transport,29.8778,47.7507,90
25494459,Raudhatain East,Kuwait Petroleum,Kuwait Petroleum,KWT,oil-and-gas-production-and-transport,29.9,47.73,91
25494476,Sabriya,Kuwait Petroleum,Kuwait Petroleum,KWT,oil-and-gas-production-and-transport,29.8354,47.8488,92
25494599,Umm Gudair (excl-Umm Gudair South PNZ),Kuwait Petroleum,Kuwait Petroleum,KWT,oil-and-gas-production-and-transport,28.8667,47.6667,93
25494582,Tsimiroro,Madagascar Oil,Madagascar Oil,MDG,oil-and-gas-production-and-transport,-18.5691,45.061,94
25494026,Ayatsil,Pemex,Pemex,MEX,oil-and-gas-production-and-transport,19.6254,-92.354,95
25494081,Cantarell,Pemex,Pemex,MEX,oil-and-gas-production-and-transport,19.4031,-92.062,96
25494147,Ek-Balam,Pemex,Pemex,MEX,oil-and-gas-production-and-transport,19.4958,-91.9389,97
25494250,KMZ,Pemex,Pemex,MEX,oil-and-gas-production-and-transport,19.5583,-92.2314,98
25494401,Onel,Pemex,Pemex,MEX,oil-and-gas-production-and-transport,19.3317,-92.3979,99
25494437,Poza,Pemex,Pemex,MEX,oil-and-gas-production-and-transport,20.4922,-97.5227,100
25494571,Teotleco,Pemex,Pemex,MEX,oil-and-gas-production-and-transport,17.8967,-93.2441,101
25494581,Tsimin,Pemex,Pemex,MEX,oil-and-gas-production-and-transport,18.7139,-92.6909,102
25494639,Xanab,Pemex,Pemex,MEX,oil-and-gas-production-and-transport,18.5379,-93.3825,103
25494642,Xux,Pemex,Pemex,MEX,oil-and-gas-production-and-transport,18.6843,-92.7591,104
25494653,Yaxche,Pemex,Pemex,MEX,oil-and-gas-production-and-transport,18.5136,-93.2765,105
25494274,Kinabalu,Petronas,Petroliam Nasional,MYS,oil-and-gas-production-and-transport,5.4325,114.7128,106
25494376,NC3 Malaysia,Petronas,Petroliam Nasional,MYS,oil-and-gas-production-and-transport,4.9145,113.0313,107
25494063,Bonny,NNPC,NNPC,NGA,oil-and-gas-production-and-transport,4.4672,7.2042,108
25494255,Kandhkot,Pakistan Petroleum,Pakistan Petroleum,PAK,oil-and-gas-production-and-transport,28.237,69.2775,109
25494328,Mari,Mari Petroleum,Mari Petroleum,PAK,oil-and-gas-production-and-transport,27.9432,69.7529,110
25494073,Bul Hanine,Qatar Energy,Qatar Energy,QAT,oil-and-gas-production-and-transport,25.4401,52.7276,111
25494134,Dukhan,Qatar Energy,Qatar Energy,QAT,oil-and-gas-production-and-transport,25.2101,50.8251,112
25494231,Idd El Shargi,Qatar Energy,Qatar Energy,QAT,oil-and-gas-production-and-transport,25.4505,52.3798,113
25494020,Astrakhanskoye,Gazprom,Gazprom,RUS,oil-and-gas-production-and-transport,46.7883,48.0831,114
25494037,Balyk-Mamontovskoye,Rosneft,Rosneft,RUS,oil-and-gas-production-and-transport,61.025,72.5861,115
25494064,Bovanenkovskoye,Gazprom,Gazprom,RUS,oil-and-gas-production-and-transport,70.4,68.4,116
25494169,Filanovskoye,LUKOIL,LUKOIL,RUS,oil-and-gas-production-and-transport,44.994,48.5915,117
25494282,Kondinskoye,Rosneft,Rosneft,RUS,oil-and-gas-production-and-transport,60.1551,69.2419,118
25494307,Lyantorskoye,Surgutneftegas,Surgutneftegas,RUS,oil-and-gas-production-and-transport,61.82,72.1702,119
25494339,Medvezhye,Gazprom,Gazprom,RUS,oil-and-gas-production-and-transport,66.23,73.83,120
25494364,Moskovtsev,Rosneft,Rosneft,RUS,oil-and-gas-production-and-transport,60.0587,72.7346,121
25494378,Nakhodkinskoye,LUKOIL,LUKOIL,RUS,oil-and-gas-production-and-transport,68.02,78.17,122
25494392,Novo-Yelkhovskoye,Tatneft,Tatneft,RUS,oil-and-gas-production-and-transport,54.9161,52.048,123
25494403,Orenburgskoye,Gazprom,Gazprom,RUS,oil-and-gas-production-and-transport,51.63,54.28,124
25494435,Povkhovskoye,LUKOIL,LUKOIL,RUS,oil-and-gas-production-and-transport,62.3625,75.8078,125
25494445,Pyakyakhinskoye,LUKOIL,LUKOIL,RUS,oil-and-gas-production-and-transport,67.8361,80.1314,126
25494490,Samotlor,Rosneft,Rosneft,RUS,oil-and-gas-production-and-transport,61.16,77.0,127
25494510,Severo-Labatyuganskoye,Surgutneftegas,Surgutneftegas,RUS,oil-and-gas-production-and-transport,62.6525,70.8977,128
25494522,Sladkovsko,OOO Sladkovsko-Zarechnoye,OOO Sladkovsko-Zarechnoye,RUS,oil-and-gas-production-and-transport,51.6588,52.7876,129
25494547,Suzunskoye,Rosneft,Rosneft,RUS,oil-and-gas-production-and-transport,68.3333,83.5,130
25494553,Talakanskoye,Surgutneftegas,Surgutneftegas,RUS,oil-and-gas-production-and-transport,59.9049,110.9812,131
25494604,Usinskoye,LUKOIL,LUKOIL,RUS,oil-and-gas-production-and-transport,66.2159,57.2715,132
25494605,Ust-Tegusskoye,Rosneft,Rosneft,RUS,oil-and-gas-production-and-transport,58.7333,73.95,133
25494614,Vat-Yeganskoye,LUKOIL,LUKOIL,RUS,oil-and-gas-production-and-transport,62.2043,75.1779,134
25494618,Verkhne-Shapshinskoye,Russneft,Russneft,RUS,oil-and-gas-production-and-transport,60.8178,70.3436,135
25494619,Verkhnekolik-Yeganskoye,NNK,NNK,RUS,oil-and-gas-production-and-transport,62.4206,80.1514,136
25494624,Vostochno-Surgutskoye,Surgutneftegas,Surgutneftegas,RUS,oil-and-gas-production-and-transport,61.3186,73.6571,137
25494626,Vyngapurovskoye gas field,Gazprom,Gazprom,RUS,oil-and-gas-production-and-transport,62.8448,76.726,138
25494646,Yamburgskoye,Gazprom,Gazprom,RUS,oil-and-gas-production-and-transport,68.1667,76.0,139
25494647,Yamsoveiskoye,Gazprom,Gazprom,RUS,oil-and-gas-production-and-transport,65.3576,75.7868,140
25494650,Yaraktinskoye,Irkutsk Oil,Irkutsk Oil,RUS,oil-and-gas-production-and-transport,57.9683,106.8294,141
25494652,Yarudeyskoye,Novatek,Novatek,RUS,oil-and-gas-production-and-transport,66.0971,71.0923,142
25494654,Yety-Purovskoye gas field,Gazprom,Gazprom,RUS,oil-and-gas-production-and-transport,64.0,77.66,143
25494656,Yubileynoye (Tyumen),Gazprom,Gazprom,RUS,oil-and-gas-production-and-transport,65.99,75.95,144
25494657,Yurkharovskoye,Novatek,Novatek,RUS,oil-and-gas-production-and-transport,67.791,77.067,145
25494660,Zapolyarnoye,Gazprom,Gazprom,RUS,oil-and-gas-production-and-transport,67.0,79.5,146
25494661,Zapovednoye,LUKOIL,LUKOIL,RUS,oil-and-gas-production-and-transport,50.3272,45.6049,147
25493973,Abqaiq,Saudi Aramco,Saudi Aramco,SAU,oil-and-gas-production-and-transport,25.9722,49.7631,148
25494012,Arabiyah,Saudi Aramco,Saudi Aramco,SAU,oil-and-gas-production-and-transport,27.1198,49.9118,149
25494050,Berri,Saudi Aramco,Saudi Aramco,SAU,oil-and-gas-production-and-transport,27.1269,49.6106,150
25494186,Ghawar,Saudi Aramco,Saudi Aramco,SAU,oil-and-gas-production-and-transport,25.2147,49.2831,151
25494212,Harmaliyah,Saudi Aramco,Saudi Aramco,SAU,oil-and-gas-production-and-transport,24.4762,49.5205,152
25494213,Hasbah,Saudi Aramco,Saudi Aramco,SAU,oil-and-gas-production-and-transport,28.1489,49.9178,153
25494260,Karan,Saudi Aramco,Saudi Aramco,SAU,oil-and-gas-production-and-transport,27.6924,49.9797,154
25494271,Khurais,Saudi Aramco,Saudi Aramco,SAU,oil-and-gas-production-and-transport,25.0096,48.134,155
25494272,Khursaniyah,Saudi Aramco,Saudi Aramco,SAU,oil-and-gas-production-and-transport,27.23,49.23,156
25494294,Lawhah,Saudi Aramco,Saudi Aramco,SAU,oil-and-gas-production-and-transport,28.2135,49.5558,157
25494324,Manifa,Saudi Aramco,Saudi Aramco,SAU,oil-and-gas-production-and-transport,27.7465,49.0941,158
25494329,Marjan,Saudi Aramco,Saudi Aramco,SAU,oil-and-gas-production-and-transport,28.4407,49.6362,159
25494337,Mazalij,Saudi Aramco,Saudi Aramco,SAU,oil-and-gas-production-and-transport,23.9218,48.2399,160
25494448,Qatif,Saudi Aramco,Saudi Aramco,SAU,oil-and-gas-production-and-transport,26.667,49.9015,161
25494478,Safaniyah,Saudi Aramco,Saudi Aramco,SAU,oil-and-gas-production-and-transport,28.2655,48.8902,162
25494515,Shaybah,Saudi Aramco,Saudi Aramco,SAU,oil-and-gas-production-and-transport,22.5629,54.0387,163
25494637,Wudayhi,Saudi Aramco,Saudi Aramco,SAU,oil-and-gas-production-and-transport,23.868,48.5006,164
25494671,Zuluf,Saudi Aramco,Saudi Aramco,SAU,oil-and-gas-production-and-transport,28.3764,49.2396,165
25494273,Kikinda,NIS-Naftagas,NIS-Naftagas,SRB,oil-and-gas-production-and-transport,45.856,20.4822,166
25494616,Velebit,NIS-Naftagas,NIS-Naftagas,SRB,oil-and-gas-production-and-transport,45.9757,19.8802,167
25494556,Tambaredjo,Staatsolie Maatschappij Suriname,Staatsolie Maatschappij Suriname,SUR,oil-and-gas-production-and-transport,5.8453,-55.5297,168
25494061,Bongkot,PTTEP,PTTEP,THA,oil-and-gas-production-and-transport,7.8208,102.4309,169
25494520,Sirikit,PTTEP,PTTEP,THA,oil-and-gas-production-and-transport,16.82,99.96,170
25494003,Amudarya Basin,Turkmengas,Turkmengas,TKM,oil-and-gas-production-and-transport,36.4737,61.6308,171
25494317,Makhtumkuli,Petronas,Petroliam Nasional,TKM,oil-and-gas-production-and-transport,39.7424,52.4446,172
25494141,ECMA,Shell,Shell,TTO,oil-and-gas-production-and-transport,10.2286,-60.2331,173
25494353,Miskar,Shell,Shell,TUN,oil-and-gas-production-and-transport,34.39,11.84,174
25494132,Dolinske,Naftogaz Ukrainy,Naftogaz Ukrainy,UKR,oil-and-gas-production-and-transport,48.9967,23.9864,175
25494342,Melykhivske,Naftogaz Ukrainy,Naftogaz Ukrainy,UKR,oil-and-gas-production-and-transport,49.5222,35.9611,176
25494508,Semyrenkivske,DTEK,DTEK,UKR,oil-and-gas-production-and-transport,49.6894,34.2225,177
25494156,Elk Hills,California Resources,California Resources,USA,oil-and-gas-production-and-transport,35.16,-119.33,178
25494227,Huntington Beach,California Resources,California Resources,USA,oil-and-gas-production-and-transport,33.68,-118.03,179
25494265,Kern River,Chevron,Chevron,USA,oil-and-gas-production-and-transport,35.5,-119.0,180
25494303,Long Beach,Signal Hill Petroleum,Signal Hill Petroleum,USA,oil-and-gas-production-and-transport,33.8,-118.17,181
25494430,Placerita,Berry,Berry,USA,oil-and-gas-production-and-transport,34.388,-118.493,182
25494434,Poso Creek,Berry,Berry,USA,oil-and-gas-production-and-transport,35.588,-118.709,183
25494665,Zevardi-Alan,Uzbekneftegaz,Uzbekneftegaz,UZB,oil-and-gas-production-and-transport,38.8356,64.9567,184
25494419,Pato Este (East),PDVSA,PDVSA,VEN,oil-and-gas-production-and-transport,9.4937,-64.088,185
25494498,Santa Rosa,PDVSA,PDVSA,VEN,oil-and-gas-production-and-transport,9.4779,-64.4024,186
25494365,Mossel Bay,PetroSA,PetroSA,ZAF,oil-and-gas-production-and-transport,-34.8943,22.0732,187
3162256,Dahna Toor Coal Mine,North Coal Enterprise (NCE),North Coal Enterprise (NCE),AFG,coal-mining,35.70499225,67.31219552,188
3162257,Garmak Project Coal Mine,Khoshak Brothers,Khoshak Brothers,AFG,coal-mining,35.733,67.308,189
14855,Shadashak Coal Mine,North Coal Enterprise (NCE),North Coal Enterprise (NCE),AFG,coal-mining,35.863255,67.596674,190
3162259,Tala Wa Barfak Coal Mine,North Coal Enterprise (NCE),North Coal Enterprise (NCE),AFG,coal-mining,35.33194,68.12,191
3162260,Valius Coal Mine,unknown,unknown,ALB,coal-mining,41.39151824,19.73642639,192
14856,Río Turbio Coal Mine,Yacimientos Carboníferos de Río Turbio,Yacimientos Carboníferos de Río Turbio,ARG,coal-mining,-51.538363,-72.324353,193
14857,Airly Coal Mine,Centennial Coal Company,Banpu,AUS,coal-mining,-33.1130709,150.0149367,194
14858,Appin Coal Mine,Illawarra Coal,South32,AUS,coal-mining,-34.211194,150.792736,195
14860,Ashton Coal Mine,Yancoal Australia,Yancoal Australia,AUS,coal-mining,-32.468942,151.078493,196
14861,Baralaba Coal Mine,Baralaba Coal,AMCI Group,AUS,coal-mining,-24.13680401,149.7936125,197
14864,Blackwood Coal Mine,Cornwall Coal,Cement Australia,AUS,coal-mining,-41.559798,148.130942,198
14865,Blair Athol Coal Mine,Orion Mining,TerraCom,AUS,coal-mining,-22.703221,147.54353,199
14866,Bloomfield Coal Mine,Bloomfield Collieries,Bloomfield Group,AUS,coal-mining,-32.7928986,151.5841947,200
16648,Bluff Coal Mine,Bowen Coking Coal,Bowen Coking Coal,AUS,coal-mining,-23.58974663,149.0786443,201
14870,Callide Coal Mine,Batchfire Resources,Batchfire Resources,AUS,coal-mining,-24.310921,150.622173,202
14871,Cameby Downs Coal Mine,Syntech Resources,Shandong Energy Group,AUS,coal-mining,-26.6181915,150.3548193,203
16768,Carmichael Coal Project,Adani Mining,Adani Enterprises,AUS,coal-mining,-22.073611,146.329722,204
14874,Chain Valley Coal Mine,Great Southern Energy,Sev.en Global Investments,AUS,coal-mining,-33.163056,151.549665,205
14877,Collinsville Coal Mine,NC Coal Company,Glencore,AUS,coal-mining,-20.5567302,147.8148229,206
14878,Commodore Coal Mine,InterGen,InterGen,AUS,coal-mining,-27.9343501,151.2554422,207
14879,Cook Colliery,QCoal,QCoal,AUS,coal-mining,-23.7159074,148.8893157,208
3162287,Cows Coal Mine,QCoal,QCoal,AUS,coal-mining,-20.63668673,147.85009,209
14881,Cullenswood Coal Mine,Cement Australia,Cement Australia,AUS,coal-mining,-41.6125381,148.1254475,210
14882,Curragh Coal Mine,Coronado Global Resources,Coronado Global Resources,AUS,coal-mining,-23.493219,148.842723,211
14883,Dartbrook Coal Mine,Australian Pacific Coal,Australian Pacific Coal,AUS,coal-mining,-32.1929124,150.894282,212
14886,Dendrobium Coal Mine,South32,South32,AUS,coal-mining,-34.419776,150.826135,213
14887,Drake Coal Mine,QCoal,QCoal,AUS,coal-mining,-20.705189,147.812727,214
3162297,Glendell Coal Mine,Glendell Tenements,Glencore,AUS,coal-mining,-32.45121527,151.0783194,215
14891,Gregory Crinum Coal Mines,Sojitz Blue,Sojitz,AUS,coal-mining,-23.1491384,148.3875874,216
3162303,Isaac Plains East Coal Mine,Stanmore Resources,Stanmore Resources,AUS,coal-mining,-21.9718375,148.1132931,217
14895,Jax Coal Mine,QCoal,QCoal,AUS,coal-mining,-20.713736,147.860166,218
14898,Kogan Creek Coal Mine,CS Energy,CS Energy,AUS,coal-mining,-26.9384276,150.7743816,219
14899,Lake Vermont Coal Mine,Jellinbah Group,Jellinbah Group,AUS,coal-mining,-22.4611726,148.4056045,220
14901,Loy Yang Coal Mine,AGL Loy Yang,AGL Energy,AUS,coal-mining,-38.2347,146.564,221
14902,Mandalong Coal Mine,Centennial Mandalong,Banpu,AUS,coal-mining,-33.119111,151.461844,222
14903,Mangoola Coal Mine,Mangoola Coal Operations,Glencore,AUS,coal-mining,-32.294922,150.706712,223
3162313,Mannering Colliery,Delta Coal,Sev.en Global Investments,AUS,coal-mining,-33.177227,151.542804,224
14904,Meandu Coal Mine,TEC Coal,Stanwell,AUS,coal-mining,-26.813543,151.911523,225
3162315,Metropolitan Coal Mine,Metropolitan Collieries,Peabody Energy,AUS,coal-mining,-34.184912,150.996569,226
14910,Mount Arthur Coal Mine,BHP,BHP,AUS,coal-mining,-32.337022,150.856144,227
16608,Mount Pleasant Coal Mine,Integrated Energy Services,Integrated Energy Services,AUS,coal-mining,-32.25591661,150.8499847,228
14911,Mt Owen Coal Mine,Mt Owen,Glencore,AUS,coal-mining,-32.4066392,151.085603,229
14913,Myuna Coal Mine,Centennial Myuna,Banpu,AUS,coal-mining,-33.060111,151.568738,230
14915,Newlands Coal Mine,Newlands Coal,Glencore,AUS,coal-mining,-21.201424,147.887969,231
14916,Oaky Creek Coal Mine,Glencore,Glencore,AUS,coal-mining,-23.072256,148.483994,232
14918,Poitrel Coal Mine,Stanmore SMC,Stanmore Resources,AUS,coal-mining,-22.06650421,148.2551254,233
14919,Premier Coal Mine,Yancoal Australia,Yancoal Australia,AUS,coal-mining,-33.391728,116.286509,234
14921,Rix Creek Coal Mine,Bloomfield Group,Bloomfield Group,AUS,coal-mining,-32.52393559,151.1208768,235
14922,Rolleston Coal Mine,Rolleston Coal Holdings,Glencore,AUS,coal-mining,-24.456609,148.404902,236
14924,Sonoma Coal Mine,QCoal,QCoal,AUS,coal-mining,-20.62,147.86,237
14925,South Walker Creek Coal Mine,Stanmore SMC,Stanmore Resources,AUS,coal-mining,-21.753393,148.443289,238
14926,Stratford Complex,Yanzhou Coal Mining,Shandong Energy Group,AUS,coal-mining,-32.11607,151.974708,239
3162340,Tarrawonga Coal Mine,Tarrawonga Coal,Whitehaven Coal,AUS,coal-mining,-30.639584,150.167277,240
3162341,Ulan Complex Coal Mine,Ulan Coal Mines,Glencore,AUS,coal-mining,-32.242539,149.749697,241
14929,Werris Creek Coal Mine,Werris Creek Coal,Whitehaven Coal,AUS,coal-mining,-31.40698,150.6395,242
14930,Wilpinjong Coal Mine,Wilpinjong Coal,Peabody Energy,AUS,coal-mining,-32.332,149.885,243
14931,Yallourn Coal Mine,EnergyAustralia,CLP Holdings,AUS,coal-mining,-38.195064,146.360402,244
3162347,Yarrabee Coal Mine,Yanzhou Coal Mining,Shandong Energy Group,AUS,coal-mining,-23.317678,149.026371,245
3162348,Barapukuria Coal Mine,Petrobangla,Petrobangla,BGD,coal-mining,25.547269,88.96062,246
3162368,Pernik Coal Mine,Otkrit Vagledobiv Mines EAD,Otkrit Vagledobiv Mines EAD,BGR,coal-mining,42.6459,23.0572,247
14939,Troyanavo 3 Coal Mine,Mini Maritsa Iztok,Bulgarian Energy Holding EAD,BGR,coal-mining,42.1677,26.0376,248
14940,Troyanovo 1 Coal Mine,Mini Maritsa Iztok,Bulgarian Energy Holding EAD,BGR,coal-mining,42.1696,26.0393,249
14941,Troyanovo-North Coal Mine,Mini Maritsa Iztok,Bulgarian Energy Holding EAD,BGR,coal-mining,42.2737,26.0138,250
3162372,Vagledobiv Bobov Dol Eood Coal Mines,Vagledobiv Bobov Dol EOOD,Vagledobiv Bobov Dol EOOD,BGR,coal-mining,42.37848715,22.9973242,251
14933,Bila Coal Mine,Elektroprivreda BiH,Elektroprivreda BiH,BIH,coal-mining,44.22142,17.76726,252
14934,Breza Coal Mine,Elektroprivreda BiH,Elektroprivreda BiH,BIH,coal-mining,44.00217338,18.25553569,253
14935,Djurdjevik Coal Mine,Elektroprivreda BiH,Elektroprivreda BiH,BIH,coal-mining,44.4010855,18.6604759,254
14936,Gacko Coal Mine,Elektroprivreda Republike Srpske,Elektroprivreda Republike Srpske,BIH,coal-mining,43.17030389,18.5100955,255
14937,Gračanica Coal Mine,Elektroprivreda BiH,Elektroprivreda BiH,BIH,coal-mining,43.99327693,17.51393576,256
3162358,Haljinici Underground Coal Mine,Elektroprivreda BiH,Elektroprivreda BiH,BIH,coal-mining,44.086592,18.175356,257
3162359,Kreka Coal Mine,Elektroprivreda BiH,Elektroprivreda BiH,BIH,coal-mining,44.52,18.606111,258
3162360,Stanari Coal Mine,EFT Group,EFT Group,BIH,coal-mining,44.75858419,17.80351636,259
3162361,Ugljevik Coal Mine,Elektroprivreda Republike Srpske,Elektroprivreda Republike Srpske,BIH,coal-mining,44.6655036,18.98854391,260
3162362,Vrtliste Coal Mine,Elektroprivreda BiH,Elektroprivreda BiH,BIH,coal-mining,44.14001979,18.09803137,261
3162363,Zenica Coal Mine,Elektroprivreda BiH,Elektroprivreda BiH,BIH,coal-mining,44.18877222,17.9328966,262
3162365,Butiá Leste Mine,Copelmi Mineração,Copelmi Mineração,BRA,coal-mining,-30.102394,-51.938235,263
3162366,Calombo Coal Mine,Copelmi Mineração,Copelmi Mineração,BRA,coal-mining,-30.090131,-51.718974,264
3162367,Cerro Coal Mine,Copelmi Mineração,Copelmi Mineração,BRA,coal-mining,-30.390024,-53.0463,265
16609,Seival Coal Mine,Copelmi Mineração,Copelmi Mineração,BRA,coal-mining,-31.449159,-53.707527,266
3162349,Habrang Coal Mine,State Mining (Bhutan),Druk Holding and Investment,BTN,coal-mining,26.90306949,91.67961198,267
3162350,Rishore Coal Mine,State Mining (Bhutan),Druk Holding and Investment,BTN,coal-mining,26.85191894,91.45143986,268
3162351,Tshophangma Coal Mine,State Mining (Bhutan),Druk Holding and Investment,BTN,coal-mining,26.90279203,91.6801055,269
14938,Morupule Coal Mine,Minerals Development Company Botswana,Minerals Development Company Botswana,BWA,coal-mining,-22.515389,27.024167,270
14942,Brule Coal Mine,ERP Compliant Fuels,ERP Compliant Fuels,CAN,coal-mining,55.38667,-121.82,271
14943,Coal Valley Coal Mine,Prairie Mines and Royalty,Westmoreland Coal,CAN,coal-mining,53.0518755,-116.7982727,272
14944,Dodds Coal Mine,Dodds Coal Mining,Dodds Coal Mining,CAN,coal-mining,53.21839986,-112.4311496,273
16561,Donkin Coal Mine,Kameron Collieries ULC,The Cline Group,CAN,coal-mining,46.1782285,-59.824882,274
3162376,Elkview Coal Mine,Elkview Mine,Teck Resources,CAN,coal-mining,49.742507,-114.823906,275
14945,Estevan Coal Mine,Prairie Mines and Royalty,Westmoreland Coal,CAN,coal-mining,49.092848,-102.886072,276
14946,Fording River Operations,Teck Coal Partnership,Teck Resources,CAN,coal-mining,50.19284,-114.86473,277
3162381,Line Creek Coal Mine,Teck Coal Partnership,Teck Resources,CAN,coal-mining,49.917,-114.776,278
14948,Poplar River Coal Mine,Prairie Mines and Royalty,Westmoreland Coal,CAN,coal-mining,49.2127113,-105.4714202,279
3162383,Stellarton Coal Mine,Pioneer Coal,Nova Construction,CAN,coal-mining,45.56475053,-62.67296499,280
16651,Vista Coal Mine,Bighorn Mining,Bighorn Mining,CAN,coal-mining,53.3961117,-117.6478052,281
14949,Willow Creek Coal Mine,ERP Compliant Fuels,ERP Compliant Fuels,CAN,coal-mining,55.6218806,-122.2174581,282
14950,Wolverine Coal Mine,ERP Compliant Fuels,ERP Compliant Fuels,CAN,coal-mining,55.0608535,-121.2530692,283
14951,1890 Coal Mine,Xinjiang Coking Coal (Group),Xinjiang BAYI Iron & Steel,CHN,coal-mining,43.008607,87.518762,284
14952,1930 Coal Mine,Xinjiang Coking Coal (Group),Xinjiang BAYI Iron & Steel,CHN,coal-mining,43.021644,87.45454,285
14953,2130 Coal Mine,Xinjiang Coking Coal (Group),Xinjiang BAYI Iron & Steel,CHN,coal-mining,43.022108,87.454015,286
16610,Algmin Coal Mine,Xinjiang Kailing Investment,Xinjiang Kailing Investment,CHN,coal-mining,42.247604,82.495625,287
14955,Anda Coal Mine,Shanxi TongZhou Group Anda Coal Industry,Shanxi Tongzhou Coal & Coke Group SHARE,CHN,coal-mining,36.745014,112.233794,288
16771,Anhui Banji Coal Mine,China Coal Xinji Energy,China Coal Xinji Energy,CHN,coal-mining,32.899945,116.228774,289
14956,Anji Xinyuan Coal Mine,Shanxi Guxian Anji Xinyuan Coal Industry,Shanxi Guxian Anji Xinyuan Coal Industry,CHN,coal-mining,36.419151,112.057556,290
14957,Anjialing Open-Pit Mine,China Coal Pingshuo Group,China Coal Energy,CHN,coal-mining,39.449488,112.360569,291
16471,Anju Coal Mine,Jining MINING Industry Group,Jining Energy Development Group,CHN,coal-mining,35.348195,116.534877,292
14962,Antaibao Surface Mine,China Coal Pingshuo Group,China Coal Energy,CHN,coal-mining,39.474754,112.311939,293
16773,Baijialiang Coal Mine,Inner Mongolia Yitai Coal,Inner Mongolia Yitai Coal,CHN,coal-mining,39.544637,110.234222,294
14967,Baiping Coal Mine,Zhengmei Group (Henan) Baiping Coal Industry,Zhengzhou Coal Industry & Electric Power,CHN,coal-mining,34.354137,113.085152,295
16515,Baiyinhua No.1 Surface Mine,Inner Mongolia Pingxibaiyinhua Coal Industry,China Energy Investment,CHN,coal-mining,44.786827,118.455621,296
14972,Baizhuang Coal Mine,Feicheng Baizhuang Coal Mine,Shandong Energy Group,CHN,coal-mining,36.241169,116.613278,297
14973,Baliancheng Coal Mine,Hunchun Mining (Group) Baliancheng Coal Industry,Jilin Provincial Coal Industry Group,CHN,coal-mining,42.830196,130.287903,298
14975,Banshi Coal Mine,Hunchun Mining (Group) Slate Coal,Jilin Provincial Coal Industry Group,CHN,coal-mining,42.775282,130.316763,299
14976,Bao'erhu Shugaobu Coal Mine,Xiwuzhumuqin Yilong Coal Industry,Xiwuzhumuqin Yilong Coal Industry,CHN,coal-mining,45.250314,119.269262,300
14854,Baode Coal Mine,China Shenhua Energy,China Shenhua Energy,CHN,coal-mining,38.950871,111.089441,301
14979,Baopingwan Coal Mine,Zhungeer Banner Gongjiatabaopingwan Coal,Inner Mongolia Huineng Coal & Electrical Group,CHN,coal-mining,39.368693,110.479916,302
16517,Bide Tengqing Coal Mine,Guizhou Guineng Investment,Guizhou Guineng Investment,CHN,coal-mining,26.559478,105.169551,303
14986,Bofang Coal Mine,Shanxi Lanhua Sci-Tech Venture,Shanxi Lanhua Sci-Tech Venture,CHN,coal-mining,35.843028,112.841872,304
14987,Buertai Coal Mine,China Shenhua Energy,China Shenhua Energy,CHN,coal-mining,39.495115,109.973302,305
14991,Chang'an Coal Mine,Shaanxi Xunyi County Xundong Coal Industry,Shaanxi Xunyi County Xundong Coal Industry,CHN,coal-mining,35.111207,108.504427,306
14993,Changcun Coal Mine,Shanxi Lu’an Environmental EnergyDev,Shanxi Lu’an Environmental EnergyDev,CHN,coal-mining,36.362666,112.975762,307
15005,Changzhi Zhenxing Coal Mine,Changzhi County Zhenxing Coal Industry,Changzhi County Zhenxing Coal Industry,CHN,coal-mining,35.891816,113.121427,308
15006,Chaochuan Coal Mine No. 1 Well,Pingdingshan Tianan Coal Mining,Pingdingshan Tianan Coal Mining,CHN,coal-mining,34.055418,112.89473,309
15007,Chaohua Coal Mine,Zhengzhou Coal Industry & Electric Power,Zhengzhou Coal Industry & Electric Power,CHN,coal-mining,34.449797,113.412928,310
15011,Chengshan Coal Mine Shaft,Jixi Mining Group,Heilongjiang Longmay Mining Holding Group,CHN,coal-mining,45.340283,131.015076,311
15012,Chengzhuang Coal Mine,Jincheng Blue Flame Coal Industry,Jincheng Blue Flame Coal Industry,CHN,coal-mining,35.612799,112.72638,312
15014,Chenjiashan Coal Mine,Shaanxi Shanmei Tongchuan Mining Industry,Shaanxi Coal Industry,CHN,coal-mining,35.156318,108.776034,313
15016,China Coal Danshuigou Coal Mine,Shanxi Zhongmei Danshuigou Coal Industry,China National Coal Group,CHN,coal-mining,39.421697,112.469082,314
15020,Chuanwo Coal Mine,Shanxi Shuguang Chuanwo Coal Industry,Shanxi ShuGuang Coal Coke Group,CHN,coal-mining,35.758679,110.605126,315
15022,Cuijiagou Coal Mine,Shaanxi CuiJiaGou Energy,Shaanxi Yiqin Group,CHN,coal-mining,35.264277,108.86325,316
15025,Dabianyao Coal Mine,Yulin Shenmu Dabianyao Gasification Coal,Yulin Shenmu Dabianyao Gasification Coal,CHN,coal-mining,38.817138,110.394346,317
15026,Dadi Refined Coal Mine,Inner Mongolia Yitai Coal,Inner Mongolia Yitai Coal,CHN,coal-mining,39.450928,110.280602,318
15028,Dafanpu Coal Mine,Inner Mongolia Zhungeer Banner Power Coal Industry,Power (Asia),CHN,coal-mining,39.762206,111.213023,319
15031,Daizhuang Coal Mine,Zibo MINING Group,Shandong Energy Group,CHN,coal-mining,35.460348,116.565508,320
15033,Daliuta Coal Mine,China Shenhua Energy,China Shenhua Energy,CHN,coal-mining,39.263103,110.234325,321
15035,Dameigou Coal Mine,Yima Coal Industry Group Qinghai Yihai Energy,Yima Coal Industry Group,CHN,coal-mining,37.521348,96.023472,322
16563,Dananhu No. 1 Coal Mine,State Grid Corporation of China Hami Coal&Energy,China Energy Investment,CHN,coal-mining,42.382334,93.018391,323
16564,Dananhu No. 2 Surface Mine,State Grid Corporation of China Hami Coal&Energy,China Energy Investment,CHN,coal-mining,42.380815,92.96712,324
15036,Dangxin Coal Mine,Shanxi Shuozhou Pinglu Xiyidangxin Coal Mine,Shanxi Xiyi Energy Group,CHN,coal-mining,39.411176,112.314693,325
15038,Daping Coal Mine,Shanxi Daping Coal Industry,Shanxi Daping Coal Industry,CHN,coal-mining,36.508063,112.908466,326
15046,Daxian Coal Mine,Shanxi Nanlou Group Yangquan Yuxian Daxian Coal Industry,Shanxi Nanlou,CHN,coal-mining,38.00888,113.361963,327
15047,Dayan No. 3 Coal Mine,Nmdayan MINING Industry Group,China Energy Investment,CHN,coal-mining,49.237569,120.555468,328
15048,Dayang Coal Mine,Shanxi Lanhua Sci-Tech Venture,Shanxi Lanhua Sci-Tech Venture,CHN,coal-mining,35.674702,112.759748,329
15050,Dayou Changcun Coal Mine,Henan Dayou Energy,Henan Dayou Energy,CHN,coal-mining,34.715914,111.906277,330
15051,Dayou Shihao Coal Mine,Henan Dayou Energy,Henan Dayou Energy,CHN,coal-mining,34.72515,111.545352,331
15052,Dayou Xin'an Coal Mine,Henan Dayou Energy,Henan Dayou Energy,CHN,coal-mining,34.831302,112.107699,332
15055,Dengjiazhuang Coal Mine,Shanxi Donghui Group Dengjiazhuang Coal Industry,Shanxi Donghui Coal Coking & CHEMICALS Group,CHN,coal-mining,37.573791,110.846986,333
15056,Desheng No. 3 Coal Mine,Inner Mongolia Desheng Industrial Group,Inner Mongolia Desheng Industrial Group,CHN,coal-mining,39.658318,106.886996,334
15057,Desheng No.2 Coal Mine,Inner Mongolia Desheng Industrial Group,Inner Mongolia Desheng Industrial Group,CHN,coal-mining,39.62475,106.887616,335
15060,Dilibangwusu Coal Mine,Wuhai Huazi Coke,Inner Mongolia Xingguang Coal Group,CHN,coal-mining,39.465359,106.917818,336
15065,Donggedu Coal Mine,Inner Mongolia Yidong Group Donggedu Coal,Inner Mongolia Yidong Investment Group,CHN,coal-mining,39.409271,110.582975,337
15068,Donghuantuo Coal Mine,KAILUAN (Group),KAILUAN (Group),CHN,coal-mining,39.647378,118.002442,338
15069,Dongjiahe Coal Mine,Shaanxi Coal Chenghe Mining,Shaanxi Coal and Chemical Industry,CHN,coal-mining,35.174484,109.903951,339
15070,Dongjiang Coal Mine,Shanxi Lvliang Dongjiang Coal Industry,Shanxi Lvliang Dongjiang Coal Industry,CHN,coal-mining,37.723537,110.990085,340
15072,Dongpang Coal Mine,Jizhong Energy Resources,Jizhong Energy Resources,CHN,coal-mining,37.243212,114.461098,341
15073,Dongpang Coal Mine North Well,Jizhong Energy Resources,Jizhong Energy Resources,CHN,coal-mining,37.232056,114.417578,342
15075,Dongpo Coal Mine,Shanxi Zhongmei Dongpo Coal Industry,China Coal Energy,CHN,coal-mining,39.420661,112.403832,343
16655,Dongshan Wulong Coal Mine,Taiyuan Dongshan Wulong Coal Industry,Taiyuan Dongshan Coal Mine,CHN,coal-mining,37.805277,112.664454,344
15080,Dongshan Xinyi Coal Mine,Shandong Dongshan Xinyi Coal Mine,Shandong Energy Group,CHN,coal-mining,35.633975,116.673106,345
15081,Dongsheng Xingyu Coal Mine,Yangquan Coal Industry (Group) Pingding Dongsheng Xingyu Coal Industry,Shan XI HUA YANG Group New ENERGY,CHN,coal-mining,37.754323,113.57796,346
15085,Dongyu Coal Mine,Shanxi Meijin Group Dongyu Coal Industry,Shanxi Meijin Energy,CHN,coal-mining,37.615069,112.253918,347
16518,Eastern Yiminhe No. 1 Coal Mine,Nmdayan MINING Industry Group,China Energy Investment,CHN,coal-mining,48.767664,119.940867,348
15096,Ejin Horo Haoda Coal Mine,Yijinhuoluo Haoda Coal,Yijinhuoluo Haoda Coal,CHN,coal-mining,39.332226,110.380935,349
15099,Fangezhuang Coal Mine,Kailuan Energy Chemical,Kailuan Energy Chemical,CHN,coal-mining,39.646399,118.432769,350
15101,Fanjiacun Coal Mine,Ordos Mengtaifanjia Village Coal Industry,INNER MONGOLIA Mengtai Croup,CHN,coal-mining,39.860709,109.999874,351
15102,Fanpo Coal Mine,Shanxi Fanpo Coal Industry,Shanxi Changzi Shengyuan Coal Industry,CHN,coal-mining,35.965458,112.942629,352
15104,Fenghui Coal Mine,Shanxi Xiyang Fenghui Coal Industry,Shanxi Xiyang Fenghui Coal Industry,CHN,coal-mining,37.527974,113.674015,353
15106,Fengshuigou Coal Mine,Inner Mongolia Pingzhuang Energy Resources,Inner Mongolia Pingzhuang Energy Resources,CHN,coal-mining,42.375707,119.364939,354
15110,Fucun Coal Mine,Zaozhuang Mining (Group) Fucun Coal Industry,Zaozhuang Mining Group,CHN,coal-mining,34.855228,117.05077,355
15111,Fugu Baoshan Coal Mine,Fugu Baoshan Coal Industry,Fugu Baoshan Coal Industry,CHN,coal-mining,39.233584,110.608817,356
15112,Fugu Dongfeng Coal Mine,Fugu Dongfeng Coal Mine,Fugu Dongfeng Coal Mine,CHN,coal-mining,39.082622,110.675644,357
15113,Fugu Guojiawan Coal Mine,Fugu Energy Investment Group Guojiawan Mining,Fugu County State-owned Assets Operation,CHN,coal-mining,39.283135,110.385088,358
15116,Fujiayan Coal Mine,Shanxi Luliang Zhongyang Fujiayan Coal Industry,Shanxi Datuhe COKE&CHEMICALS,CHN,coal-mining,37.454478,111.143361,359
15121,Gaocheng Coal Mine,Zhengzhou Coal Industry & Electric Power,Zhengzhou Coal Industry & Electric Power,CHN,coal-mining,34.398035,113.153849,360
15135,Gengcun Coal Mine,Henan Dayou Energy,Henan Dayou Energy,CHN,coal-mining,34.736678,111.763781,361
15136,Gengyang Coal Mine,Zhongyang County Liming Coal Industry,Shanxi Gengyang Investment Group,CHN,coal-mining,37.273333,111.075278,362
15137,Gequan Coal Mine,Jizhong Energy Resources,Jizhong Energy Resources,CHN,coal-mining,36.951257,114.352222,363
15138,Gequan Coal Mine East Well,Jizhong Energy Resources,Jizhong Energy Resources,CHN,coal-mining,36.945414,114.379493,364
3162591,Gongwusu Coal Mine No. 3 Well,Shenhua Group Haibowan Mining,China Energy Investment,CHN,coal-mining,39.330225,106.935948,365
15139,Gouli Coal Mine,Shanxi Changzhi Xiongshangouli Coal Industry,Shanxi Changzhi Xiongshangouli Coal Industry,CHN,coal-mining,35.958955,113.034859,366
15156,Guzhuang Coal Mine,Shanxi Yangquan Guzhuang Coal Industry,Shanxi Zhenghua Industrial Group,CHN,coal-mining,37.980788,113.551745,367
15157,Haerwusu Surface Mine,China Shenhua Energy,China Shenhua Energy,CHN,coal-mining,39.731044,111.258324,368
3162613,Haibowan Surface Mine,Shenhua Group Haibowan Mining,China Energy Investment,CHN,coal-mining,39.335356,106.921987,369
15158,Haishiwan Coal Mine,Lanzhou Yaojie Coal Power,Gansu ENERGY Chemical,CHN,coal-mining,36.349253,102.879005,370
15160,Halagou Coal Mine,China Shenhua Energy,China Shenhua Energy,CHN,coal-mining,39.232488,110.076802,371
15161,Hamagou Coal Mine,Shanxi Puxian Toad Valley Coal Industry,Shanxi Puxian Toad Valley Coal Industry,CHN,coal-mining,36.409734,111.350933,372
15165,Hanjiawan Coal Mine,Shanbei Mining Hanjiawan Coal,Shaanxi Coal Industry,CHN,coal-mining,39.405763,110.187891,373
15183,Heshun Hongrun Coal Mine,Shanxi Coal Transportation and Marketing Group Heshun Hongrun Coal Industry,Shanxi Coal Transportation and Marketing Group Heshun Hongrun Coal Industry,CHN,coal-mining,37.228849,113.498279,374
16801,Hetaoyu Coal Mine,Huaneng Gansu Engery Development,China Huaneng Group,CHN,coal-mining,35.269947,107.946376,375
15186,Hongce Coal Mine,Inner Mongolia Yidong Group Hongce Coal,Inner Mongolia Yidong Investment Group,CHN,coal-mining,39.707473,110.195087,376
15189,Hongfeng Surface Mine,Ordos Hongfeng Coal,Ordos Hongfeng Coal,CHN,coal-mining,39.899371,110.040952,377
15191,Hongjingta No. 1 Coal Mine,Inner Mongolia Yitai Coal,Inner Mongolia Yitai Coal,CHN,coal-mining,39.458669,110.559449,378
3162650,Honglin Coal Mine,Guizhou Lindong Mining Group,Guizhou Panjiang Investment Holding (Group),CHN,coal-mining,27.169922,105.953326,379
16615,Hongshaquan No. 1 Surface Mine,Guoneng Xinjiang Hongshaquan Energy,China Energy Investment,CHN,coal-mining,44.502378,90.296864,380
15197,Hongshiyan Coal Mine,Shaanxi Hongshiyan Mining,Shaanxi Yiqin Group,CHN,coal-mining,35.630815,109.06758,381
16812,Hongsi Coal Mine,Ningxia Baofeng Group Hongsi Coal Industry,Ningxia Baofeng Energy Group,CHN,coal-mining,38.480866,106.613547,382
15199,Hongxing Coal Mine,Changzhi Hongxing Coal Industry,Changzhi Hongxing Coal Industry,CHN,coal-mining,35.917847,113.046728,383
15201,Hongya Caol Mine,Inner Mongolia Hengdong Group Hongya Coal,Inner Mongolia Hengdong Energy Group,CHN,coal-mining,39.345351,110.598135,384
15205,Hou'an Coal Mine,Shanxi Shuozhou Pinglu Houan Coal,Shanxi Shuozhou Pinglu Houan Coal,CHN,coal-mining,39.491347,112.434072,385
15207,Houwenjialiang Coal Mine,Ordos Wulan Coal (Group),Ordos Wulan Development Group,CHN,coal-mining,39.442733,110.30777,386
15208,Huafeng Coal Mine,Xinwen MINING Group,Shandong Energy Group,CHN,coal-mining,35.865231,117.162772,387
15219,Huangling No. 1 Coal Mine,Shaanxi Shanmei Huangling Mining Industry,Shaanxi Coal Industry,CHN,coal-mining,35.656136,109.064794,388
16657,Huangtupo Xinneng Coal Mine,Shanxi Huangtupo Xinneng Coal Industry,Shanxi Huangtupo Coal Industry Group,CHN,coal-mining,36.813922,112.200761,389
15227,Huaxia Coal Mine,Shanxi Shanyin Huaxia Coal Industry,Shanxi Shanyin Huaxia Coal Industry,CHN,coal-mining,39.712192,112.734242,390
15231,Huhewusu Coal Mine,"Inner Mongolia MF Coal .,Ltd",Mengfa Energy Holding Group,CHN,coal-mining,39.379371,110.148352,391
16481,Huibao Coal Mine,Shenmu Huibao Coal Industry,Shaanxi Hongrui Investment Group,CHN,coal-mining,39.054008,110.187305,392
15234,Huipodi Coal Mine,Shanxi Fenhe Coking Coal,Shanxi Fenhe Coking Coal,CHN,coal-mining,36.44403,111.519976,393
16658,Hulun Buir Yaxing Coal Mine No. 1 Well,Hulunbuir Yaxing Coal Industry,Hulunbuir Yaxing Coal Industry,CHN,coal-mining,49.064355,120.861967,394
3162700,Huneng Dingjialiang Coal Mine,Ordos Huaneng Coal Group,Ordos Huaneng Coal Group,CHN,coal-mining,39.437952,110.366867,395
15238,Huojitu Well Of Daliuta Coal Mine,China Shenhua Energy,China Shenhua Energy,CHN,coal-mining,39.259312,110.224368,396
15243,Huoluowan Coal Mine,Inner Mongolia Shendong Tianlong Group,Inner Mongolia Shendong Tianlong Group,CHN,coal-mining,39.442523,110.034952,397
15244,Huoshaopu Coal Mine,Guizhou Panjiang Refined Coal,Guizhou Panjiang Refined Coal,CHN,coal-mining,25.662385,104.412744,398
15247,"Hutubi Coal Diversified Business Company,Limited Xiaogangou Coal Mine",Hutubi Coal Diversified Business,Hutubi Coal Diversified Business,CHN,coal-mining,43.807761,86.35212,399
15249,Jiajiagou Coal Mine,Shanxi Lvliang Lishi Jiajiagou Coal Industry,Shanxi Datuhe COKE&CHEMICALS,CHN,coal-mining,37.472113,111.19791,400
15250,Jiangyuan Coal Mine,Jilin Babao Coal Industry,Jilin Provincial Coal Industry Group,CHN,coal-mining,41.999992,126.554613,401
3162719,Jianyuan Coal Mine,Otog Banner Jianyuan Coking,Hongxing International Development,CHN,coal-mining,39.342871,106.995121,402
15258,Jiayang Coal Mine,Sichuan Jiayang Group,Chengdu Caihong Environmental Protection Technology,CHN,coal-mining,29.266922,103.81697,403
15264,Jiexiu Zuozegou Coal Mine,Jiexiu Lianfu Town Zuozegou Colliery,Jiexiu Lianfu Town Zuozegou Colliery,CHN,coal-mining,37.032507,112.074091,404
15267,Jinbaotun Coal Mine,Liaoyuan Mining (Group),Jilin Provincial Coal Industry Group,CHN,coal-mining,43.112948,123.367684,405
15275,Jinggong No. 1 Coal Mine,China Coal Pingshuo Group,China Coal Energy,CHN,coal-mining,39.446524,112.361964,406
15276,Jinggong No. 3 Coal Mine,China Coal Pingshuo Group,China Coal Energy,CHN,coal-mining,39.539072,112.326699,407
15277,Jinglu Coal Mine,Shanxi Boda Group Shouyang Jinglu Coal Industry,Shanxi Boda Group Shouyang Jinglu Coal Industry,CHN,coal-mining,37.983032,113.230343,408
15279,Jinhe Coal Mine,Lanzhou Yaojie Coal Power,Gansu ENERGY Chemical,CHN,coal-mining,36.446724,102.873878,409
15282,Jining Gucheng Coal Mine,Shandong Dongshan Gucheng Coal Mine,Shandong Energy Group,CHN,coal-mining,35.580114,116.838197,410
15285,Jinjia Coal Mine,Guizhou Panjiang Refined Coal,Guizhou Panjiang Refined Coal,CHN,coal-mining,25.706641,104.489688,411
3162757,Jinping Coal Mine,Shanxi Xiangkuang Jinping Coal Industry,Shanxi Xiangkuang Group,CHN,coal-mining,36.508637,112.968938,412
15289,Jinpushan Coal Mine,Shanxi Jincheng Jinpushan Coal Industry,Shanxi Zhenghua Industrial Group,CHN,coal-mining,35.438319,112.789793,413
16617,Jinsha Longgong Coal Mine,Guizhou Langyue Mining Investment,Guizhou Langyue Mining Investment,CHN,coal-mining,27.373328,106.150374,414
15294,Jintai Changtan Coal Mine,Inner Mongolia Jintai Energy,Inner Mongolia Jintai Energy,CHN,coal-mining,39.609565,111.165266,415
16831,Jinyang Coal Mine,Shanxi Qinyuan Guodao Jinyang Coal Industry,Shanxi Tongzhou Coal & Coke Group SHARE,CHN,coal-mining,36.562088,112.467575,416
15298,Jinyuanli Coal Mine,Neimenggu YuanYuan Energy Group,Neimenggu YuanYuan Energy Group,CHN,coal-mining,45.46561,119.538079,417
15300,Jiudaoling Coal Mine,Liaoning Jiudaoling Coal Industry,Liaoning Ping'an Economic and Trade,CHN,coal-mining,41.635208,121.332877,418
3162776,Jungar Bu'erdong Coal Mine,Zhungeer Banner Gongjia Taberdong Coal,Inner Mongolia Huineng Coal & Electrical Group,CHN,coal-mining,39.400833,110.480833,419
3162779,Kaida Coal Mine,Inner Mongolia Yitai Coal,Inner Mongolia Yitai Coal,CHN,coal-mining,39.345813,110.59626,420
15309,Kaiyuan Coal Mine,Shouyang Kaiyuan Mining,Shan XI HUA YANG Group New ENERGY,CHN,coal-mining,37.962314,113.029653,421
3162782,Kejian Coal Mine,Inner Mongolia Ke Jian Coal,Zhongwei Investment,CHN,coal-mining,39.615948,110.29172,422
15316,Kongzhuang Coal Mine,Shanghai Datun ENERGY Resources,Shanghai Datun ENERGY Resources,CHN,coal-mining,34.782041,116.954253,423
15317,Kouzi East Coal Mine,China Coal Xinji Energy,China Coal Xinji Energy,CHN,coal-mining,32.833342,116.162687,424
15318,Langwoqu Coal Mine,Shenmu Langwoqu Mining,Shenmu Langwoqu Mining,CHN,coal-mining,39.059433,110.29665,425
15321,Lanhua Kouqian Coal Mine,Shanxi Shanyin Kouqian Coal Industry,Shanxi Lanhua Sci-Tech Venture,CHN,coal-mining,39.694072,112.617277,426
15322,Lanhua Wangyun Coal Mine,Shanxi Lanhua Sci-Tech Venture,Shanxi Lanhua Sci-Tech Venture,CHN,coal-mining,35.889087,112.870158,427
15326,Laoshidan Coal Mine,Shenhua Wuhai Energy,China Energy Investment,CHN,coal-mining,39.391211,106.848993,428
16838,Liang Bei Coal Mine,Henan Xuchang Xinlong Mine Industry,Henan Shenhuo Coal&Power,CHN,coal-mining,34.090606,113.464711,429
16528,Lijiahao Coal Mine,Shenhua Baotou Energy,China Shenhua Energy,CHN,coal-mining,39.738114,110.024669,430
15332,Lijialou Coal Mine,Shanxi Lijialou Coal Industry,Taiyuan Dongshan Coal Mine,CHN,coal-mining,37.635802,112.289392,431
3162805,Lijiaqu Coal Mine,Zhungeer Banner Chuanzhang Lijiaqu Coal,Zhungeer Banner Chuanzhang Lijiaqu Coal,CHN,coal-mining,39.713723,110.243661,432
3162809,Limin Coal Mine,Inner Mongolia Fukailong Water Conservancy & Hydro Power Engineering Group,China Energy Investment,CHN,coal-mining,39.426993,106.943927,433
15338,Lingdong Coal Mine,Zhalainur Coal Industry Limited Liability,China Huaneng Group,CHN,coal-mining,49.393174,117.766854,434
16529,Linglu Coal Mine,Zhalainur Coal Industry Limited Liability,China Huaneng Group,CHN,coal-mining,49.450319,117.743275,435
15339,Lingquan Coal Mine,Zhalainur Coal Industry Limited Liability,China Huaneng Group,CHN,coal-mining,49.484131,117.695322,436
15346,Linxi Coal Mine,Tangshan Kailuan Linxi Mining,Kailuan Energy Chemical,CHN,coal-mining,39.718948,118.445582,437
15350,Liujia Coal Mine,Inner Mongolia Pingzhuang Energy Resources,Inner Mongolia Pingzhuang Energy Resources,CHN,coal-mining,42.069895,119.319702,438
15354,Liulingou Coal Mine,Ordos Dayuan Coal,Ordos Dayuan Coal,CHN,coal-mining,39.441964,110.440218,439
3162831,Liupanshui Juxin Coal Mine,Guizhou Guineng Heilaga Coal Industry,Guizhou Guineng Investment,CHN,coal-mining,26.151248,105.278392,440
15355,Liuta Coal Mine,Shenhua Shendong Coal Group Corporation,China Shenhua Energy,CHN,coal-mining,39.493392,110.089764,441
15357,Liuzhuang Coal Mine,China Coal Xinji Energy,China Coal Xinji Energy,CHN,coal-mining,32.805365,116.285412,442
15362,Longdong Coal Mine,Shanghai Datun ENERGY Resources,Shanghai Datun ENERGY Resources,CHN,coal-mining,34.908731,116.822725,443
15364,Longjiabao Coal Mine,Jilin Longjiabao Mining Industry,Jilin Provincial Coal Industry Group,CHN,coal-mining,44.004556,125.646836,444
15369,Lu'an Wangzhuang Coal Mine,Shanxi Lu’an Environmental EnergyDev,Shanxi Lu’an Environmental EnergyDev,CHN,coal-mining,36.373933,113.01989,445
15370,Lu'an Xiadian Coal Mine,Shanxi Lu'an Mining Group Cilinshan Coal Industry,Shanxi Lu’an Environmental EnergyDev,CHN,coal-mining,36.51617,112.934829,446
3162852,Lucun No.1 Coal Mine,Fuxian Mining Development,Yan'an Energy Chemical (Group),CHN,coal-mining,35.867195,108.833981,447
3162853,Lucun No.2 Coal Mine,Fuxian Mining Development,Yan'an Energy Chemical (Group),CHN,coal-mining,35.907601,109.081962,448
15372,Lujiayao Coal Mine,Suzhou Pinglu District Local State-Owned Lujiayao Coal Mine,Suzhou Pinglu District Local State-Owned Lujiayao Coal Mine,CHN,coal-mining,39.453809,112.448801,449
16485,Luzigou Coal Mine,Shanxi Huairen Zhongneng Luzigou Coal Industry,Shanxi Huairen Zhongneng Luzigou Coal Industry,CHN,coal-mining,39.81845,112.961858,450
15380,Lvjiatuo Coal Mine,Kailuan Energy Chemical,Kailuan Energy Chemical,CHN,coal-mining,39.664562,118.386475,451
15385,Maidizhang Coal Mine,Taiyuan Gengyang Industry Group,Shanxi Gengyang Investment Group,CHN,coal-mining,37.726318,112.274391,452
15388,Majunyu Coal Mine,Shanxi Majunyu Coking,Shanxi Majunyu Coking,CHN,coal-mining,36.7702,112.248368,453
15390,Maliantai Coal Mine,Ningxia Baofeng Energy Group,Ningxia Baofeng Energy Group,CHN,coal-mining,38.268636,106.553403,454
16571,Manlailiang Coal Mine,Inner Mongolia Mengtai Manlailiang Coal Industry,INNER MONGOLIA Mengtai Croup,CHN,coal-mining,39.466462,110.228892,455
15391,Manlailiang Surface Mine,Ordos Wulan Coal (Group),Ordos Wulan Development Group,CHN,coal-mining,39.482982,110.266371,456
15400,Mengjin Coal Mine,Mengjin Coal Mine Co Ltd of Yima Coal Industry Group,Henan Dayou Energy,CHN,coal-mining,34.871019,112.250956,457
15401,Mengxi Coal Mine,Inner Mongolia Mengxi Coal,Inner Mongolia Guangna Coal Industry (Group),CHN,coal-mining,39.643152,107.03672,458
15402,Mengxi Xinyuan Coal Mine,Ordos Mengxi Xinyuan Coal Industry,Ordos Mengxi Xinyuan Coal Industry,CHN,coal-mining,39.698208,106.878364,459
15404,Minda Surface Mine,Ordos Mingmingda Coal,Ordos Mingmingda Coal,CHN,coal-mining,39.833503,110.142382,460
15407,Nalinmiao No.2 Well Coal Mine,Inner Mongolia Yitai Coal,Inner Mongolia Yitai Coal,CHN,coal-mining,39.365488,110.607263,461
15416,Naolinmiao Coal Mine No.1 Well,Inner Mongolia Yitai Coal,Inner Mongolia Yitai Coal,CHN,coal-mining,39.377246,110.600979,462
15418,Nengdong Coal Mine,Fugu County Nengdong Coal Mine,Fugu County Nengdong Coal Mine,CHN,coal-mining,39.226498,110.487909,463
16704,Nongnaimiao Luxin Coal Mine,Inner Mongolia Lu New Energy Development,Shandong Energy Group,CHN,coal-mining,45.654191,119.144472,464
15424,Nuanquan Coal Mine,Shanxi Zhongyang Liansheng Nuanquan Coal Industry,Shanxi Zhongyang Iron & Steel,CHN,coal-mining,37.17471,111.073335,465
16705,Panxian Changxing Coal Mine,Guizhou Bangda Energy Development,Guizhou Bangda Energy Development,CHN,coal-mining,25.972867,104.764294,466
16706,Panxian Dongli Coal Mine,Guizhou Bangda Energy Development,Guizhou Bangda Energy Development,CHN,coal-mining,25.701592,104.626582,467
15438,Pinglu Xiyi Coal Mine,Shanxi Shuozhou Pinglu Xiyi Coal Mine,Shanxi Xiyi Energy Group,CHN,coal-mining,39.445898,112.377042,468
16533,Pingshuo East Coal Mine,China Coal Pingshuo Group,China Coal Energy,CHN,coal-mining,39.550649,112.442337,469
15441,Pingyu No.1 Coal Mine,Henan Pingyu Coal Power,China Pingmei Shenma ENERGY and CHEMICALS Group,CHN,coal-mining,34.210895,113.523744,470
15444,Pulongwan Coal Mine,Shanxi Pulongwan Coal Industry,Shanxi Coal International Energy Group,CHN,coal-mining,39.831604,112.822395,471
15445,Puxian Baozigou Coal Mine,Shanxi Coal Import and Export Group Puxian Baozigou Coal Industry,Shanxi Coal International Energy Group,CHN,coal-mining,36.234356,111.265782,472
15450,Qianjiaying Coal Mine,KAILUAN (Group),KAILUAN (Group),CHN,coal-mining,39.599037,118.364658,473
15452,Qianqiu Coal Mine,Henan Dayou Energy,Henan Dayou Energy,CHN,coal-mining,34.73025,111.875028,474
16866,Qianxi Xintian Coal Mine,Yonggui Energy Development Liability,Yongmei Group,CHN,coal-mining,27.106289,106.096649,475
15457,Qingcheng Coal Mine,Shanxi Shengtianbaodiqingcheng Coal Mine,Shanxi Shengtianbaodiqingcheng Coal Mine,CHN,coal-mining,37.997459,113.415211,476
16662,Qinggangping Coal Mine,Shaanxi Xunyi Qinggangping Mining,China Huaneng Group,CHN,coal-mining,35.05254,108.551971,477
15467,Qinyuan Gengyang Coal Mine,Shanxi Qinyuan Gengyang Coal Industry,Shanxi Gengyang Investment Group,CHN,coal-mining,36.990834,112.191579,478
15472,Que’er'shan Coal Mine,Datong Queshan Clean Coal,Datong Queshan Clean Coal,CHN,coal-mining,40.110187,112.941993,479
3162962,Rongheng Surface Mine,Ordos Wulan Coal (Group),Ordos Wulan Development Group,CHN,coal-mining,39.586293,110.3315,480
15476,Ruide Coal Mine,Erdos Ruide Coal Chemical,Erdos Ruide Coal Chemical,CHN,coal-mining,39.544371,110.514711,481
15477,Ruidong Coal Mine,Jiexiu Ruidong Coal Industry,Jiexiu Ruidong Coal Industry,CHN,coal-mining,36.951106,111.851667,482
15478,Ruifeng Coal Mine,Fugu Ruifeng Coal Mine,Fugu Ruifeng Coal Mine,CHN,coal-mining,39.253063,110.500347,483
15484,Sanding Coal Mine,Inner Mongolia Sanding Coal,Inner Mongolia Sanding Coal,CHN,coal-mining,39.728506,110.244851,484
15485,Sangshuping Coal Mine,Shaanxi Shanmei Hancheng Mining Industry,Shaanxi Coal and Chemical Industry,CHN,coal-mining,35.683498,110.551188,485
15486,Sanjiaohe Coal Mine,Shanxi Fenhe Coking Coal,Shanxi Fenhe Coking Coal,CHN,coal-mining,36.387778,111.417181,486
3162980,Shaanxi Anyang Coal Mine,Shaanxi Heyang County Coal Development,Shaanxi Coal and Chemical Industry,CHN,coal-mining,35.195374,110.134069,487
16620,Shagoucha Coal Mine,Fugu Energy Investment Group Shagoucha Mining,Fugu County State-owned Assets Operation,CHN,coal-mining,39.100119,110.696113,488
3162983,Shahaiji No.1 Coal Mine,State Grid Energy Hefeng Coal Power,China Energy Investment,CHN,coal-mining,46.553039,86.205922,489
16576,Shajihai No.2 Coal Mine,State Grid Energy Hefeng Coal Power,China Energy Investment,CHN,coal-mining,46.553039,86.205922,490
15491,Shanbula Coal Mine,Jungar Rongxiang Coal Coking,China National Coal Group,CHN,coal-mining,39.312796,110.600235,491
15492,Shandong Xinhe Coal Mine,Shandong Lineng Xinhe Mining Industry,Shandong Energy Group,CHN,coal-mining,35.393054,116.444708,492
15495,Shangwan Coal Mine,China Shenhua Energy,China Shenhua Energy,CHN,coal-mining,39.217545,110.007346,493
15498,Shanjiaoshu Coal Mine,Guizhou Panjiang Refined Coal,Guizhou Panjiang Refined Coal,CHN,coal-mining,25.88902,104.50014,494
3162994,Shanxi Jinfu Coal Mine,Shanxi Meijin Group Jinfu Coal Industry,Shanxi Meijin Energy,CHN,coal-mining,37.662079,112.201163,495
16664,Shanxi Xiaohuigou Coal Mine,Shanxi Xiaohuigou Coal Industry,China Coal Energy,CHN,coal-mining,37.704417,112.286802,496
15507,Shenda Qifeng Coal Mine,Shanxi Xinzhou Shenda Qifeng Coal Industry,Shanxi Xinzhou Shenda Energy Group,CHN,coal-mining,39.017522,112.279435,497
15514,Shenhua Bulianta Coal Mine,China Shenhua Energy,China Shenhua Energy,CHN,coal-mining,39.354814,110.168084,498
15516,Shenhuo Xinzhuang Coal Mine,Henan Shenhuo Coal&Power,Henan Shenhuo Coal&Power,CHN,coal-mining,33.923643,116.621805,499
15519,Shenmu Dongchuan Coal Mine,Shenmu Daliuta Dongchuan Mining,Shenmu Daliuta Dongchuan Mining,CHN,coal-mining,39.274037,110.38157,500
15520,Shenmu Jiayuan Coal Mine,Shenmu Jiayuan Coal Industry Group,Shenmu Jiayuan Coal Industry Group,CHN,coal-mining,39.220303,110.051402,501
15522,Shenmu Xinyao Coal Mine,Shenmu Xinyao Coal Industry,Shenmu Xinyao Coal Industry,CHN,coal-mining,39.028525,110.313783,502
15523,Shennanwa Coal Mine,Shanxi Xiangning Coking Coal Group Shennan'ao Coking Coal,Shanxi Xiangning Coking Coal Group,CHN,coal-mining,36.082784,110.967229,503
15525,Shibangou Coal Mine,Shanxi Xiangkuang Shibangou Coal Industry,Shanxi Xiangkuang Group,CHN,coal-mining,36.664411,113.007764,504
16536,Shifengshan Coal Mine,Shanxi Huairen Shifengshan Coal Industry,Shanxi Huairen Shifengshan Coal Industry,CHN,coal-mining,39.784722,112.833216,505
15527,Shigetai Coal Mine,China Shenhua Energy,China Shenhua Energy,CHN,coal-mining,39.412064,110.13213,506
15532,Shitai Coal Mine,Huaibei Shitai Mining,Huaibei Shitai Mining,CHN,coal-mining,34.026475,116.918535,507
15536,Shouwang Coal Mine,Shanxi Yicheng Shouwang Coal Industry,Beijing State-owned Capital Management Center,CHN,coal-mining,35.770616,111.830752,508
16709,Shuangshan Coal Mine,Shaanxi Tenghui Mining,Shaanxi Tenghui Mining,CHN,coal-mining,38.450227,109.954879,509
15544,Shuiquan Surface Coal Mine,Shenhua Baotou Energy,China Shenhua Energy,CHN,coal-mining,40.693531,110.603908,510
15545,Shuiyu Coal Mine,Shanxi Fenxi Mining Group Shuiyu Coal Industry,Shanxi Coking Coal Energy Group,CHN,coal-mining,37.091075,111.605166,511
16884,Shuozhou Zhuhezhui Coal Mine,Shanxi Shuozhou Shanyin Orchid Zhuhezui Coal Industry,Beijing Ward Financial Investment Holding,CHN,coal-mining,39.653768,112.624845,512
15548,Sidaoliu Coal Mine,Inner Mongolia Manshi Coal Group Sidaolu Coal,Inner Mongolia Manshi Coal Group Sidaolu Coal,CHN,coal-mining,39.650944,110.318697,513
16888,Sijichun Coal Mine,Guizhou Guineng Investment,Guizhou Guineng Investment,CHN,coal-mining,26.636316,105.475375,514
15550,Sikeshu Coal Mine No.8 Well,Wusu Sikeshu Coal,State Power Investment,CHN,coal-mining,44.160089,84.373093,515
3163059,Songxinzhuang Coal Mine,SINOPEC GREAT Wall ENERGY and CHEMICL(Ningxia),China Petrochemical,CHN,coal-mining,37.491702,106.797794,516
15559,Suncun Coal Mine,Xinwen MINING Group,Shandong Energy Group,CHN,coal-mining,35.872092,117.682327,517
15562,Sunjiahao Coal Mine,Inner Mongolia Yidong Group Sunjiahao Coal,Inner Mongolia Yidong Investment Group,CHN,coal-mining,39.913906,111.320592,518
15563,Sunsangou Coal Mine,Inner Mongolia Hongyuan Coal Group,Inner Mongolia Hongyuan Coal Group,CHN,coal-mining,39.712643,110.200637,519
15566,Taidongshan Coal Mine,Shanyin Anhuabaluoshan Coal Mine,Shanxi Golden Ocean Investment,CHN,coal-mining,39.69595,112.666097,520
15567,Taiping Coal Mine,Panzhihua Pannenghua,Sichuan Coal Industry Group Dazhu Coal and Electricity Group,CHN,coal-mining,26.593914,101.562157,521
15569,Taitou Coal Mine,Shanxi Xiangning County Taitou Coke,Shanxi Xiangning Coking Coal Group,CHN,coal-mining,36.032481,110.918972,522
3163077,Talahao Coal Mine,Inner Mongolia Yitai Coal,Inner Mongolia Yitai Coal,CHN,coal-mining,39.79013,110.156685,523
15573,Tang'an Coal Mine,Shanxi Lanhua Sci-Tech Venture,Shanxi Lanhua Sci-Tech Venture,CHN,coal-mining,35.725132,112.776174,524
15575,Tangkou Coal Mine,Shandong Tangkou Coal Industry,Shandong Energy Group,CHN,coal-mining,35.437915,116.519943,525
15576,Tangshan Coal Mine,KAILUAN (Group),KAILUAN (Group),CHN,coal-mining,39.621128,118.196006,526
15579,Tanyaoping Coal Mine,Shanxi Luliang Lishi Tanyaoping Coal Industry,Shanxi Datuhe COKE&CHEMICALS,CHN,coal-mining,37.490056,111.131541,527
15586,Tengyuan Coal Mine,Ordos Tengyuan Coal,Ordos Juding Coal Machinery Industrial Group,CHN,coal-mining,39.857996,110.082137,528
15587,Tian'an No.10 Coal Mine,Pingdingshan Tianan Coal Mining,Pingdingshan Tianan Coal Mining,CHN,coal-mining,33.759798,113.349017,529
15588,Tian'an No.11 Coal Mine,Pingdingshan Tianan Coal Mining,Pingdingshan Tianan Coal Mining,CHN,coal-mining,33.813085,113.173177,530
15589,Tian'an No.12 Coal Mine,Pingdingshan Tianan Coal Mining,Pingdingshan Tianan Coal Mining,CHN,coal-mining,33.760817,113.367701,531
15590,Tian'an No.13 Coal Mine,Pingdingshan Tianan Coal Mining,Pingdingshan Tianan Coal Mining,CHN,coal-mining,33.881412,113.380083,532
15591,Tian'an No.2 Coal Mine,Pingdingshan Tianan Coal Mining,Pingdingshan Tianan Coal Mining,CHN,coal-mining,33.755676,113.302611,533
15592,Tian'an No.4 Coal Mine,Pingdingshan Tianan Coal Mining,Pingdingshan Tianan Coal Mining,CHN,coal-mining,33.778162,113.266048,534
15593,Tian'an No.5 Coal Mine,Pingdingshan Tianan Coal Mining,Pingdingshan Tianan Coal Mining,CHN,coal-mining,33.784098,113.223538,535
15595,Tianan No. 1 Coal Mine,Pingdingshan Tianan Coal Mining,Pingdingshan Tianan Coal Mining,CHN,coal-mining,33.762409,113.303408,536
15596,Tianan No. 6 Coal Mine,Pingdingshan Tianan Coal Mining,Pingdingshan Tianan Coal Mining,CHN,coal-mining,33.787914,113.241159,537
15597,Tianan No. 8 Coal Mine,Pingdingshan Tianan Coal Mining,Pingdingshan Tianan Coal Mining,CHN,coal-mining,33.758125,113.426262,538
15601,Tianju Xinhuiyuan Coal Mine,Shanxi Xinhuiyuan Coal Industry,Shanxi JUYI Industry Group,CHN,coal-mining,36.948063,111.802119,539
15602,Tianlong Dahaize Coal Mine,Inner Mongolia Shendong Tianlong Group,Inner Mongolia Shendong Tianlong Group,CHN,coal-mining,39.224997,110.342516,540
15604,Tianshun Coal Mine,Chenbaerhuqi Tianshun Mining Industry,Huadian Energy,CHN,coal-mining,49.438591,119.759572,541
15609,Tie'bei Coal Mine,Zhalainur Coal Industry Limited Liability,China Huaneng Group,CHN,coal-mining,49.461323,117.769641,542
3163121,Toksun Coal Mine,Sinkiang Heishan Strip Mine,Sinkiang Heishan Strip Mine,CHN,coal-mining,43.237625,87.519177,543
15624,Tucheng Coal Mine,Guizhou Panjiang Refined Coal,Guizhou Panjiang Refined Coal,CHN,coal-mining,26.05645,104.503236,544
15625,Tunbao Coal Mine,Xinjiang Changji Tunbao Mining Industry,China Energy Investment,CHN,coal-mining,43.671058,87.156009,545
15627,Ulan Mulun Coal Mine,Shenhua Shendong Coal Group Corporation,China Shenhua Energy,CHN,coal-mining,39.457596,110.10216,546
15628,Ulansetai Coal Mine,Shenmu Wulan Setai Coal,Shenmu Wulan Setai Coal,CHN,coal-mining,39.224877,110.393906,547
15633,Wangjiata Coal Mine,Xinneng Mining Industry,ENN Natural Gas,CHN,coal-mining,39.676306,110.001415,548
15637,Wangjiazhuang Coal Mine,Shanxi Lvliang Lishi Wangjiazhuang Coal Industry,Shanxi Datuhe COKE&CHEMICALS,CHN,coal-mining,37.501779,111.160181,549
15639,Wanglou Coal Mine,Shandong Dongshanwanglou Coal Mine,Shandong Energy Group,CHN,coal-mining,35.194934,116.581628,550
15647,Wanli No.1 Coal Mine,China Shenhua Energy,China Shenhua Energy,CHN,coal-mining,39.899571,109.917382,551
15654,Weijiamao Open Pit Mine,North Weijiamao Coal Power,Inner Mongolia MengDian HuaNeng Thermal Power Corporation,CHN,coal-mining,39.534982,111.29515,552
16899,Wotugou Coal Mine,Yijinhuoluo Mengtai Coal,Mengfa Energy Holding Group,CHN,coal-mining,39.452333,110.051171,553
16623,Wudong Coal Mine,China Energy Group Xinjiang Energy Company,China Energy Investment,CHN,coal-mining,43.929294,87.745344,554
15661,Wuguantun Coal Mine,Datong Wuguantun Coal Industry,Datong Wuguantun Coal Industry,CHN,coal-mining,40.118623,113.119722,555
16668,Wuhai Dongfeng Surface Mine,Wuhai Junzheng Mining,Inner Mongolia Junzheng Energy & Chemical Group,CHN,coal-mining,39.436558,106.972803,556
15664,Wuhai Jian'an Coal Mine,Wuhai Jian'an Coal Mine,Wuhai Jian'an Coal Mine,CHN,coal-mining,39.51001,106.630726,557
15669,Wujiata Surface Mine,Inner Mongolia Shendong Tianlong Group,Inner Mongolia Shendong Tianlong Group,CHN,coal-mining,39.278553,110.183639,558
15675,Wuyang Coal Mine,Shanxi Lu’an Environmental EnergyDev,Shanxi Lu’an Environmental EnergyDev,CHN,coal-mining,36.492975,113.047886,559
15676,Xiagou Coal Mine,Bin Xian Coal,Bin Xian Coal,CHN,coal-mining,35.069351,108.043765,560
15678,Xiangkuang Xinzhuang Coal Mine,Shanxi Xiangkuang Xinzhuang Coal Industry,Shanxi Xiangkuang Group,CHN,coal-mining,36.681741,113.061456,561
15680,Xiangshan Coal Mine,Shaanxi Shanmei Hancheng Mining Industry,Shaanxi Coal and Chemical Industry,CHN,coal-mining,35.483402,110.419146,562
3163190,Xiangshuihe Coal Mine,Shenmu County Perfume River Mining,Management Committee of Yushen Industrial Zone (Yulin Economic and Technological Development Zone),CHN,coal-mining,38.784569,110.245438,563
3163200,Xiaozhuang Coal Mine,Shaanxi Binchang Xiaozhuang Mining,Shaanxi Coal Industry,CHN,coal-mining,35.08346,107.983823,564
15691,Xiashijie Coal Mine,Shaanxi Shanmei Tongchuan Mining Industry,Shaanxi Coal Industry,CHN,coal-mining,35.228223,108.856012,565
15692,Xiayukou Coal Mine,Shaanxi Shanmei Hancheng Mining Industry,Shaanxi Coal and Chemical Industry,CHN,coal-mining,35.60856,110.561149,566
3163204,Xiehua Coal Mine,Inner Mongolia Tehong Coal Power Group,Inner Mongolia Tehong Coal Power Group,CHN,coal-mining,39.850508,111.328355,567
15694,Xiezhuang Coal Mine,Xinwen MINING Group,Shandong Energy Group,CHN,coal-mining,35.902492,117.611148,568
15700,Xinchazhuang Coal Mine,Shandong Xinchazhuang Mining,Shandong Luzhong Energy Group,CHN,coal-mining,36.220397,116.551793,569
15702,Xinfa Coal Mine,Shanxi Xiangyuan Qiyi Xinfa Coal Industry,Changzhi Yuchi Industry and Trade,CHN,coal-mining,36.588144,112.97955,570
15704,Xingdong Coal Mine,Jizhong Energy Resources,Jizhong Energy Resources,CHN,coal-mining,37.092102,114.541672,571
15705,Xingheng Coal Mine,Inner Mongolia JIAYE Coal Industry,Inner Mongolia JIAYE Energy Group,CHN,coal-mining,39.966445,109.897633,572
15708,Xinglong Heidaigou Coal Mine,Inner Mongolia Xinglong Coal,Inner Mongolia Xinglong Coal,CHN,coal-mining,39.794309,111.254573,573
16489,Xingsheng Coal Mine,Xinjiang Jiangna Mining Industry,Linyi Runxing Investment,CHN,coal-mining,43.912677,94.666764,574
3163222,Xingshengda Coal Mine,Ordos Xingshengda Coal Industry,Ordos Xingshengda Coal Industry,CHN,coal-mining,39.80339,110.236968,575
15710,Xingshengmin Coal Mine,Fugu Xingshengmin Coal Mine,Fugu Xingshengmin Coal Mine,CHN,coal-mining,39.181125,110.524103,576
15713,Xinji No.1 Coal Mine,China Coal Xinji Energy,China Coal Xinji Energy,CHN,coal-mining,32.699902,116.536394,577
15714,Xinji No.2 Coal Mine,China Coal Xinji Energy,China Coal Xinji Energy,CHN,coal-mining,32.698321,116.590647,578
15717,Xinjing Coal Mine,Shanxi Xinjing Mine Coal,Shan XI HUA YANG Group New ENERGY,CHN,coal-mining,37.859833,113.447561,579
15723,Xinqiao Coal Mine,Yongmei Group,Yongmei Group,CHN,coal-mining,33.857702,116.280201,580
16914,Xinwen IlI No.1 Coal Mine,Xinwen Mining Group (Yili) Energy Development,Shandong Energy Group,CHN,coal-mining,43.546231,80.961116,581
15727,Xinxin Coal Mine,Inner Mongolia Mengtai Xinxin Coal Industry,INNER MONGOLIA Mengtai Croup,CHN,coal-mining,39.556694,110.67681,582
15738,Xipo Coal Mine,Shanxi Meishengdengjiazhuang Coal Industry,Shanxi Donghui Coal Coking & CHEMICALS Group,CHN,coal-mining,37.590934,110.809287,583
15743,Xuehu Coal Mine,Henan Shenhuo Group,Henan Shenhuo Group,CHN,coal-mining,34.133772,116.389022,584
15744,"Xukuang Group Xinjiang Sai'er Energy Company,Limited No.3 Coal Mine",Xukuang Group Xinjiang Sai'er Energy,Jiangsu Soho Holdings Group,CHN,coal-mining,46.539205,85.976133,585
15745,"Xukuang Group Xinjiang Sai'er Energy Company,Limited No.6 Coal Mine",Xukuang Group Xinjiang Sai'er Energy,Jiangsu Soho Holdings Group,CHN,coal-mining,46.55306,86.203944,586
15747,Xuzhuang Coal Mine,Shanghai Datun ENERGY Resources,Shanghai Datun ENERGY Resources,CHN,coal-mining,34.840187,116.945215,587
16671,Yadian Coal Mine,Bin Xian Coal,Bin Xian Coal,CHN,coal-mining,35.217077,107.969668,588
15762,Yangshita No.1 Coal Mine,Inner Mongolia Huineng Coal Power Group Yangshita Coal,Inner Mongolia Huineng Coal & Electrical Group,CHN,coal-mining,39.272821,110.654701,589
15763,Yangshita No.2 Coal Mine,Inner Mongolia Huineng Coal Power Group Yangshita Coal,Inner Mongolia Huineng Coal & Electrical Group,CHN,coal-mining,39.272821,110.654701,590
15764,Yangta Coal Mine,Inner Mongolia Juxiang Coal Industry Group,Inner Mongolia Juxiang Holding,CHN,coal-mining,39.444701,110.641123,591
15772,Yanjiahe Coal Mine,Xunyi County Zhongda Yanjiahe Coal Mine,Xunyi County Zhongda Yanjiahe Coal Mine,CHN,coal-mining,35.092004,108.185673,592
15776,Yaojie No. 3 Coal Mine,Lanzhou Yaojie Coal Power,Gansu ENERGY Chemical,CHN,coal-mining,36.432793,102.880291,593
15777,Yaoqiao Coal Mine,Shanghai Datun ENERGY Resources,Shanghai Datun ENERGY Resources,CHN,coal-mining,34.882095,116.912623,594
15778,Yaoqu Coal Mine,Shenmu Yaoqu Coal Industry,Shenmu Yaoqu Coal Industry,CHN,coal-mining,38.757742,110.424272,595
15779,Yaozhai Coal Mine,Shanxi Shanyin Baoshanyaozhai Coal Industry,Shanxi Shanyin Baoshanyaozhai Coal Industry,CHN,coal-mining,39.698632,112.696883,596
15780,Yaozhida Coal Mine,Shanxi Yaozhida Coal Industry,Shanxi Changzi Shengyuan Coal Industry,CHN,coal-mining,35.977645,112.909478,597
15782,Yidong Hongxin Coal Mine,Inner Mongolia Yidong Group Hongxin Coal,Inner Mongolia Yidong Investment Group,CHN,coal-mining,39.742105,110.199993,598
15784,Yimin Surface Mine,HUA NENG Yimin Coal and POWER,China Huaneng Group,CHN,coal-mining,48.588717,119.757048,599
16923,Yingyuan Yuchuan Coal Mine,Inner Mongolia YingYuan Coal Transportation and Marketing,Inner Mongolia YingYuan Coal Transportation and Marketing,CHN,coal-mining,39.655497,111.281901,600
15789,Yishun Coal Mine,Shanxi Shuozhou Pinglu District Yishun Coal Industry,Shanxi Xiyi Energy Group,CHN,coal-mining,39.545491,112.353152,601
15790,Yitai Baoshan Coal Mine,Inner Mongolia Yitai Baoshan Coal,Inner Mongolia Yitai Coal,CHN,coal-mining,39.453893,110.371276,602
15802,Yongsheng Coal Mine,Shanxi Shuozhou Pinglu District Lanhua Yongsheng Coal Industry,Shanxi Lanhua Sci-Tech Venture,CHN,coal-mining,39.592717,112.449244,603
15805,Yuanbaoshan Coal Mine,Inner Mongolia Pingzhuang Coal Group,China Energy Investment,CHN,coal-mining,42.337293,119.313046,604
15809,Yuanyuan Surface Coal Mine 958 Mining Area,Neimenggu YuanYuan Energy Group,Neimenggu YuanYuan Energy Group,CHN,coal-mining,45.464911,119.549702,605
15815,Yueliangtian Coal Mine,Guizhou Panjiang Refined Coal,Guizhou Panjiang Refined Coal,CHN,coal-mining,25.922572,104.500064,606
15818,Yuhua Coal Mine,Shanxi Anze Yuhua Coal Industry,Shanxi Anze Yuhua Coal Industry,CHN,coal-mining,36.445024,112.110715,607
15820,Yuhua Coal Mine Yuhua Well,Shaanxi Shanmei Tongchuan Mining Industry,Shaanxi Coal Industry,CHN,coal-mining,35.31381,108.920115,608
15821,Yujialiang Coal Mine,China Shenhua Energy,China Shenhua Energy,CHN,coal-mining,39.044292,110.521818,609
16491,Yujing Coal Mine,Shanxi Shanyin Baoshan Yujing Coal Industry,Shanxi Shanyin Baoshan Yujing Coal Industry,CHN,coal-mining,39.704737,112.586857,610
15824,Yunjialing Coal Mine,Jizhong Energy Resources,Jizhong Energy Resources,CHN,coal-mining,36.733395,114.16322,611
15825,Yunkai Coal Mine,Jungar Qi Yunkai Coal,Jungar Qi Yunkai Coal,CHN,coal-mining,39.569878,110.609856,612
15828,Yuwu Coal Mine,Shanxi Changye Lu'an Mine Affairs Bureau Group Yuwu Coal Industry,Shanxi Lu’an Environmental EnergyDev,CHN,coal-mining,36.364173,112.858361,613
15834,Zhangcun Coal Mine,Shanxi Lu’an Environmental EnergyDev,Shanxi Lu’an Environmental EnergyDev,CHN,coal-mining,36.430986,113.047655,614
15835,Zhangcun Coal Mine No. 4 Well,Jizhong Energy Resources,Jizhong Energy Resources,CHN,coal-mining,36.859509,114.270854,615
15838,Zhangshuanglou Coal Mine,Jiangsu Xukuang Energy,Jiangsu Xukuang Energy,CHN,coal-mining,34.807205,116.836652,616
15839,Zhangzishan Coal Mine,Shanxi Zhongyang Zhangzishan Coal Industry,Shanxi Zhongyang Iron & Steel,CHN,coal-mining,37.43034,111.18716,617
16583,Zhanihe Surface Mine,Nmdayan MINING Industry Group,China Energy Investment,CHN,coal-mining,49.147909,120.227287,618
16628,Zhaojiashan Coal Mine,Shanxi Donghui Group Zhaojiashan Coal Industry,Shanxi Donghui Coal Coking & CHEMICALS Group,CHN,coal-mining,37.651195,112.229621,619
16944,Zhijin Xin'an Coal Mine,Guizhou Xingweixing Energy Investment,Guizhou Xingweixing Energy Investment,CHN,coal-mining,26.78107,105.765104,620
16630,Zhuanlongwan Coal Mine,Ordos Zhuanlongwan Coal,Yankuang Energy Group,CHN,coal-mining,39.570975,110.109982,621
16542,Zhundong Surface Mine,Guoneng Xinjiang Zhundong Energy,China Energy Investment,CHN,coal-mining,44.836767,89.148398,622
3163387,Bijao-La Guacamaya Coal Mine,Sator,Grupo Argos,COL,coal-mining,7.882676,-75.699816,623
15866,Cerrejón Coal Mine,Carbones del Cerrejon,Glencore,COL,coal-mining,11.033968,-72.662926,624
16952,El Corozo Coal Mine,Drummond,Drummond Company,COL,coal-mining,9.496821,-73.49205,625
15867,El Descanso Coal Mine,Drummond,Drummond Company,COL,coal-mining,9.7050912,-73.5231884,626
3163390,El Hatillo Coal Mine,Colombia Natural Resources,Patria Energética,COL,coal-mining,9.629849,-73.560634,627
3163391,La Francia Coal Mine,Colombia Natural Resources,Patria Energética,COL,coal-mining,9.652258,-73.534805,628
15868,Pribbenow Coal Mine,Drummond,Drummond Company,COL,coal-mining,9.575297,-73.484914,629
15869,San Juaquin Coal Mine,Grupo Corporativo Vatia S.A.S (Vatia),Grupo Corporativo Vatia S.A.S (Vatia),COL,coal-mining,6.037294,-75.6932,630
3163394,Bilina Coal Mine,CEZ,CEZ,CZE,coal-mining,50.569659,13.710986,631
3163396,Jiří Coal Mine,Sokolovská Uhelná,Sokolovská Uhelná,CZE,coal-mining,50.2161,12.6836,632
15871,Karvina Coal Mines,OKD,PRISKO,CZE,coal-mining,49.81706578,18.54849501,633
3163398,Nástup-Tušimice Coal Mine,CEZ,CEZ,CZE,coal-mining,50.406429,13.386449,634
15876,Amsdorf Coal Mine,Romonta,Romonta,DEU,coal-mining,51.459088,11.717863,635
15877,Garzweiler Coal Mine,RWE Power,RWE,DEU,coal-mining,51.0839989,6.4529844,636
15878,Hambach Coal Mine,RWE Power,RWE,DEU,coal-mining,50.891826,6.5734464,637
15879,Inden Coal Mine,RWE Power,RWE,DEU,coal-mining,50.875,6.35,638
3163400,El Maghara Coal Mine,Egyptian Mineral Resources Authority,Egyptian Mineral Resources Authority,EGY,coal-mining,30.706731,33.3816866,639
3164499,San Nicolás Coal Mine,Hunosa Group,Hunosa Group,ESP,coal-mining,43.252355,-5.818375,640
3163402,Delbi Coal Mine,May Flower Mining Enterprise,May Flower Mining Enterprise,ETH,coal-mining,7.642375,36.817514,641
3163403,Kamashi Coal Mines,Kamakshi Mines & Minerals Private,Kamakshi Mines & Minerals Private,ETH,coal-mining,9.444658,35.787402,642
16392,Aberpergwm Coal Mine,Energybuild,Energybuild,GBR,coal-mining,51.740824,-3.644329,643
16393,East Pit Coal Mine,Celtic Energy,Celtic Energy,GBR,coal-mining,51.800243,-3.837668,644
16394,Ffos-y-fran Coal Mine,Gwent Investments,Gwent Investments,GBR,coal-mining,51.753453,-3.344177,645
15874,Dzidziguri Coal Mine,Steel International Trade,Steel International Trade,GEO,coal-mining,42.33943,42.988558,646
15875,Mindeli Coal Mine,Steel International Trade,Steel International Trade,GEO,coal-mining,42.33943,42.988558,647
3163416,Achlada Coal Mine,Achlada Lignite Mines,Achlada Lignite Mines,GRC,coal-mining,40.8604,21.5996,648
15886,Megalopolis Lignite Center (MlC),Public Power Corporation,Public Power Corporation,GRC,coal-mining,37.427554,22.097807,649
15887,West Macedonia Lignite Centre (WMLC),Public Power Corporation,Public Power Corporation,GRC,coal-mining,40.448222,21.783496,650
3163420,PécsVasas Coal Mine,Pannon Power Holding,Veolia Environnement,HUN,coal-mining,46.100144,18.289225,651
3163807,AAAA Coal Mine,Anugerah Alam Andalas Andalan,Anugerah Alam Andalas Andalan,IDN,coal-mining,-1.557062,102.742669,652
3163808,AAB Coal Mine,Adidaya Akbar Berkarya,Adidaya Akbar Berkarya,IDN,coal-mining,-3.695902,115.622598,653
3163809,AAJ Coal Mine,Anjas Anita Jaya,Anjas Anita Jaya,IDN,coal-mining,4.126354,117.198499,654
3163811,ABE Coal Mine,Arzara Baraindo Energitama,Arzara Baraindo Energitama,IDN,coal-mining,-0.447993,117.134375,655
15987,ABK Coal Mines,Anugerah Bara Kaltim,Anugerah Bara Kaltim,IDN,coal-mining,-0.430956,117.268994,656
15988,ABN Coal Mine,PT Toba Sejahtra,PT Toba Sejahtra,IDN,coal-mining,-0.687029,117.243974,657
16495,ABP Coal Mine,Alamjaya Bara Pratama,other,IDN,coal-mining,-0.595281,116.975981,658
15990,ADP Coal Mine,Alfara Delta Persada,Alfara Energi Investama,IDN,coal-mining,-0.502823,117.175495,659
15991,AGM Coal Mine,Baramulti Suksessarana,Baramulti Suksessarana,IDN,coal-mining,-2.889157,115.259809,660
3163818,AJE Coal Mine,Angsana Jaya Energi,Angsana Jaya Energi,IDN,coal-mining,-3.714658,115.621257,661
3163819,AJI Coal Mine,Alam Jaya Indah,Alam Jaya Indah,IDN,coal-mining,-0.755623,117.055735,662
15995,ALE Coal Mine,Anugerah Lumbung Energi,Anugerah Lumbung Energi,IDN,coal-mining,-3.719586,115.185545,663
3163825,AMC Coal Mines,PT Maruwai Coal,PT Adaro Minerals Indonesia,IDN,coal-mining,0.224239,113.550687,664
3163826,AMNK Coal Mine,Atha Marth Naha Kramo,Atha Marth Naha Kramo,IDN,coal-mining,3.082742,116.495638,665
3163829,APC Coal Mine,Arimbi Prima Coal,Arimbi Prima Coal,IDN,coal-mining,-0.99773,116.935007,666
3163830,APT Coal Mine,Tribara Daya Global,Tribara Daya Global,IDN,coal-mining,-0.477526,116.10771,667
16718,ARG Coal Mine,Anugerah Rizkie Gunung,Anugerah Rizkie Gunung,IDN,coal-mining,-3.206961,115.006916,668
15997,ARJ Coal Mine,Alfa Riung Jaya,Alfa Riung Jaya,IDN,coal-mining,-3.912362,114.942233,669
3163837,ATM Coal Mine,Artha Tunggal Mandiri,Artha Tunggal Mandiri,IDN,coal-mining,2.246306,117.345711,670
3163838,ATU Coal Mine,Atap Tri Utama,Atap Tri Utama,IDN,coal-mining,-0.65266,117.184209,671
16719,AUJS Coal Mine,Andalan Usaha Jaya Semesta,Andalan Usaha Jaya Semesta,IDN,coal-mining,-0.584626,114.794639,672
3163839,AWL Coal Mine,Ayu Wulan Lestari,Ayu Wulan Lestari,IDN,coal-mining,-0.409676,117.025059,673
16717,Aero Mandiri Coal Mine,Aero Mandiri,Aero Mandiri,IDN,coal-mining,-3.227468,115.013763,674
3163817,Agung Bara Prima Coal Mine,Jardine Cycle & Carriage,Jardine Cycle & Carriage,IDN,coal-mining,-1.120132,114.474622,675
15992,Akbar 2 Coal Mine,Akbar Indo Makmur Stimec,Aims Indo Investama,IDN,coal-mining,-3.215461,115.02073,676
15993,Akbar Coal Mine,Akbar Indo Makmur Stimec,Aims Indo Investama,IDN,coal-mining,-3.316952,114.936559,677
15994,Akbar Mitra Jaya Coal Mine,Akbar Mitra Jaya,Akbar Mitra Jaya,IDN,coal-mining,-3.805291,115.301097,678
3163824,Alhasanie Coal Mine,Alhasanie,Alhasanie,IDN,coal-mining,-0.615843,117.271317,679
3163827,Anggaraksa Adisarana Coal Mine,Anggaraksa Adisarana,Anggaraksa Adisarana,IDN,coal-mining,-0.726371,117.076797,680
15996,Anzawara Satria Coal Mine,Anzawara Satria,Anzawara Satria,IDN,coal-mining,-3.730729,115.611243,681
3163831,Ardimulyo Coal Mine,Energi Nuansa Mandiri,Energi Nuansa Mandiri,IDN,coal-mining,2.903704,116.985311,682
3163832,Arini Coal Mine,Arini,Arini,IDN,coal-mining,-0.507132,117.334486,683
15999,Astaka Dodol Coal Mine,Astaka Dodol,Astaka Dodol,IDN,coal-mining,-2.583189,103.390531,684
3163836,Astrindo Gita Mandiri Coal Mine,Astrindo Gita Mandiri,Astrindo Gita Mandiri,IDN,coal-mining,-0.972965,100.475644,685
16720,BAM Coal Mine,Borneo Anugerah Mandiri,Borneo Anugerah Mandiri,IDN,coal-mining,-3.809208,115.339369,686
16002,BAU Coal Mine,Bara Coal,Bara Coal,IDN,coal-mining,-3.772116,103.629522,687
3163850,BBA Coal Mine,Berau Bara Abadi,Berau Bara Abadi,IDN,coal-mining,2.122746,117.182445,688
3163851,BBAP Coal Mine,Bara Batu Ampar Prima,Bara Batu Ampar Prima,IDN,coal-mining,-0.994167,102.715682,689
3163852,BBE Coal Mine,Bukit Baiduri Energi,Bukit Baiduri Energi,IDN,coal-mining,-0.427653,117.080463,690
3163853,BBK Coal Mine,Bara Bumi Kartanegara,Bara Bumi Kartanegara,IDN,coal-mining,-0.916549,117.180524,691
3163854,BBMM Coal Mine,Bumi Bara Makmur Mandiri,Bumi Bara Makmur Mandiri,IDN,coal-mining,-1.808359,102.889466,692
16722,BBP Coal Mine,Banjar Bumi Persada,Banjar Bumi Persada,IDN,coal-mining,-3.270789,114.961076,693
16004,BBPK Coal Mine,Bangun Banua Persada Kalimantan,Bangun Banua Persada Kalimantan,IDN,coal-mining,-3.136096,115.184676,694
3163857,BCMP Coal Mine,Baramega Citra Mulia Persada,Baramega Citra Mulia Persada,IDN,coal-mining,-6.279384,106.830399,695
16005,BDMD Coal Mine,Baradinamika Mudasukses,Baradinamika Mudasukses,IDN,coal-mining,3.146529,116.486364,696
3163859,BEB Coal Mine,Bumi Etam Bebaya,Bumi Etam Bebaya,IDN,coal-mining,1.081356,117.721897,697
3163860,BEH Coal Mine,Borneo Emas Hitam,Borneo Emas Hitam,IDN,coal-mining,-0.331836,117.042761,698
3163861,BEI Coal Mine,Bangun Energy Indonesia,Bangun Energy Indonesia,IDN,coal-mining,-1.735791,102.964792,699
3163862,BEK Coal Mine,Bara Energi Kaltim,Bara Energi Kaltim,IDN,coal-mining,-0.543458,117.148208,700
16006,BEL Coal Mine,Bara Energi Lestari,ABM Investama,IDN,coal-mining,4.121573,96.202574,701
16008,BEP Coal Mine,Permata Energy Resources,Permata Energy Resources,IDN,coal-mining,-0.787083,117.128815,702
3163869,BGG Coal Mine,Budi Gema Gempita,Budi Gema Gempita,IDN,coal-mining,-6.214305,106.831385,703
3163871,BIC Coal Mine,Belayan Internasional Coal,Belayan Internasional Coal,IDN,coal-mining,-0.484809,117.116261,704
16010,BIL Coal Mine,Bara Mustika Indah,Bara Mustika Indah,IDN,coal-mining,-4.0258,102.581836,705
16011,BIM Coal Mine,Banjar Regency,Banjar Regency,IDN,coal-mining,-2.033411,116.400445,706
16723,BIP Coal Mine,Barito Inti Perdana,Barito Inti Perdana,IDN,coal-mining,-3.868744,115.040656,707
16013,BISM Coal Mine,Bina Insan Sukses Mandiri,Bina Insan Sukses Mandiri,IDN,coal-mining,-0.486982,117.127228,708
3163876,BJL Coal Mine,Batubara Jambi Lestari,Batubara Jambi Lestari,IDN,coal-mining,-1.773937,103.466008,709
3163877,BJPE Coal Mine,Bumi Jaya Prima Etam,Bumi Jaya Prima Etam,IDN,coal-mining,-0.429206,116.517112,710
16631,BKL Coal Mine,Atlas Resources,Atlas Resources,IDN,coal-mining,-3.01578,104.7827,711
3163878,BKS Coal Mine,Archean Group,Archean Group,IDN,coal-mining,-0.56483,117.00909,712
3163879,BMB Block 2 Coal Mine,PT Binuang Mitra Bersama,PT Binuang Mitra Bersama,IDN,coal-mining,-3.15864,115.107243,713
3163880,BMB Block 4 Coal Mine,PT Binuang Mitra Bersama,PT Binuang Mitra Bersama,IDN,coal-mining,-3.157949,115.110192,714
16680,BMB Coal Mine,PT Binuang Mitra Bersama,PT Binuang Mitra Bersama,IDN,coal-mining,-3.165361,115.103284,715
16545,BME Coal Mine,Bumi Merapi Energi,Bumi Merapi Energi,IDN,coal-mining,-3.804478,103.645386,716
3163881,BML Coal Mine,Bukit Menjangan Lestari,Bukit Menjangan Lestari,IDN,coal-mining,-0.4266,116.84511,717
3163882,BMQ Coal Mine,Bara Mega Quantum,Bara Mega Quantum,IDN,coal-mining,-3.844925,102.343351,718
16014,BMR Coal Mine,Berkat Murah Rejeki,Berkat Murah Rejeki,IDN,coal-mining,-3.029859,115.168117,719
3163884,BMS Coal Mine,Bara Manunggal Sakti,Bara Manunggal Sakti,IDN,coal-mining,-3.753054,103.544828,720
3163885,BN Coal Mine,Berkat Nanda,Berkat Nanda,IDN,coal-mining,-0.599172,117.253054,721
3163886,BNJM Coal Mine,Bangun Nusantara Jaya Makmur,Bangun Nusantara Jaya Makmur,IDN,coal-mining,-2.032638,115.411496,722
16015,BNY Coal Mine,Bakti Nugraha Yuda,Bakti Nugraha Yuda,IDN,coal-mining,-4.084291,104.176962,723
16588,BPA Coal Mine,Bara Pramulya Abadi,Bara Pramulya Abadi,IDN,coal-mining,-1.98253,115.567363,724
16018,BPAC Coal Mine,Bima Putra Abadi Citranusa,Bima Putra Abadi Citranusa,IDN,coal-mining,-3.881,103.673,725
3163892,BPEP Coal Mine,Bintang Prima Energy Pratama,Bintang Prima Energy Pratama,IDN,coal-mining,-0.794475,117.187878,726
3163893,BPI Coal Mine,Bumi Paramasari Indo,Bumi Paramasari Indo,IDN,coal-mining,0.099369,114.378701,727
3163894,BPP Coal Mine,Bara Prima Pratama,Bara Prima Pratama,IDN,coal-mining,-0.982319,102.754944,728
3163895,BRA Coal Mine,Buana Rizky Armia,Buana Rizky Armia,IDN,coal-mining,-0.671211,117.179303,729
3163896,BRASU Coal Mine,Baratama Rezeki Anugerah Sentosa Utama,Baratama Rezeki Anugerah Sentosa Utama,IDN,coal-mining,-1.616515,101.915912,730
3163897,BRCM Coal Mine,Bukit Raya Coal Mining,Bukit Raya Coal Mining,IDN,coal-mining,-0.998974,116.936164,731
3163899,BSI Coal Mine,Bara Setiu Indonesia,Bara Setiu Indonesia,IDN,coal-mining,-1.739938,116.173833,732
16020,BSL Coal Mine,PT Barasentosa Lestari,PT Golden Energy Mines,IDN,coal-mining,-2.609275,103.223175,733
3163901,BSS Coal Mine,Benamakmur Selaras Sejahtera,Benamakmur Selaras Sejahtera,IDN,coal-mining,2.804081,117.426389,734
16021,BSSR Coal Mine,Wahana Sentosa Cemerlang,Wahana Sentosa Cemerlang,IDN,coal-mining,-0.547286,116.931596,735
16681,BTP Coal Mine,Banua Tuntung Pandang,Banua Tuntung Pandang,IDN,coal-mining,-3.782402,115.044831,736
16496,BTU Coal Mine,Borneo Tala Utama,Borneo Tala Utama,IDN,coal-mining,-3.870066,115.191678,737
3163903,BU Coal Mine,Brian Utama,Brian Utama,IDN,coal-mining,-1.013091,117.012234,738
16022,BUK Coal Mine,Berkat Usaha Karya,Berkat Usaha Karya,IDN,coal-mining,-3.932697,114.886368,739
16024,BUMD Coal Mine,Banjar Regency,Banjar Regency,IDN,coal-mining,-3.419361,114.850714,740
3163912,BUP Coal Mine,Bumi Unggul Permai,Bumi Unggul Permai,IDN,coal-mining,-1.453697,102.654601,741
3163913,BUPR Coal Mine,eForce Holdings,eForce Holdings,IDN,coal-mining,-1.724352,115.191323,742
3163840,Bama Coal Mine,Bara Adhi Pratama,Bara Adhi Pratama,IDN,coal-mining,-3.205447,101.825818,743
3163841,Banjarsari Pribumi Coal Mine,Banjarsari Pribumi,Banjarsari Pribumi,IDN,coal-mining,-3.656677,103.805509,744
3163842,Bara Batin Pratama Coal Mine,Bara Batin Pratama,Bara Batin Pratama,IDN,coal-mining,-1.792756,102.988805,745
3163843,Bara Mahakam Coal Mine,Bara Mahakam,Bara Mahakam,IDN,coal-mining,-1.091515,116.928067,746
3163844,Baramega Berkah Utama Coal Mine,Baramega Berkah Utama,Baramega Berkah Utama,IDN,coal-mining,-2.804023,115.377182,747
16721,Baratama Coal Mine,Baratama,Baratama,IDN,coal-mining,-3.241396,115.119423,748
3163846,Batubara Kalimanta Coal Mine,Batubara Kalimanta,Batubara Kalimanta,IDN,coal-mining,-1.782466,115.24768,749
16678,Batubara Lahat Coal Mine,Batubara Lahat,Batubara Lahat,IDN,coal-mining,-3.801805,103.602764,750
3163864,Bencoolen Coal Mine,Bencoolen Mining,Bencoolen Mining,IDN,coal-mining,-3.16955,101.784223,751
16007,Bengkulu Bio Energi Coal Mine,Bengkulu Bio Energi,Bengkulu Bio Energi,IDN,coal-mining,-3.75237,102.48424,752
16679,Berkat Bersujud Coal Mine,Berkat Bersujud,Berkat Bersujud,IDN,coal-mining,-3.775628,115.432277,753
3163867,Berkat Bumi Persada Coal Mine,Berkat Bumi Persada,Berkat Bumi Persada,IDN,coal-mining,-1.037907,114.751928,754
16963,Bersama Alam Sentosa Coal Mine,Bersama Alam Sentosa,Bersama Alam Sentosa,IDN,coal-mining,-3.961349,114.85165,755
3163868,Betuah Coal Mine,Betuah,Betuah,IDN,coal-mining,-1.091171,116.929552,756
16009,Bharinto Ekatama Coal Mine,PT Bharinto Ekatama,PT Indo Tambangraya Megah,IDN,coal-mining,-0.581028,115.706,757
16016,Boneo Indobara Coal Mine,PT Borneo Indobara,PT Golden Energy Mines,IDN,coal-mining,-3.700239,115.559833,758
3163889,Borneo Prima Coal Mine,Borneo Prima,Borneo Prima,IDN,coal-mining,0.099752,114.378722,759
16632,Buana Bara Ekapratama Coal Mine,Buana Bara Ekapratama,Buana Bara Ekapratama,IDN,coal-mining,-2.165281,103.75315,760
3163904,Buana Karsatama Coal Mine,Buana Karsatama,Buana Karsatama,IDN,coal-mining,-2.892199,115.494198,761
16023,Bukit Telunjuk Coal Mine,Bukit Telunjuk,Bukit Telunjuk,IDN,coal-mining,-3.728929,103.656101,762
3163909,Bumi Enggang Khatulistiwa Coal Mine,Bumi Enggang Khatulistiwa,Bumi Enggang Khatulistiwa,IDN,coal-mining,-0.041862,115.586492,763
3163910,Bumi Petangis Coal Mine,Bumi Petangis,Bumi Petangis,IDN,coal-mining,-2.107771,116.187987,764
3163911,Bunda Kandung Coal Mine,Bunda Kandung,Bunda Kandung,IDN,coal-mining,-1.144884,114.681569,765
16724,CAS Coal Mine,Cahaya Alam Sejahtera,Cahaya Alam Sejahtera,IDN,coal-mining,-3.219605,115.837929,766
16589,CBP Coal Mine,Cahaya Bumi Perdana,Cahaya Bumi Perdana,IDN,coal-mining,-0.587849,100.800376,767
3163915,CBS Coal Mine,Cahaya Belawan Sejahtera,Cahaya Belawan Sejahtera,IDN,coal-mining,-0.340196,117.287044,768
3163916,CDE Coal Mine,Cakrawala Dinamika Energi,Cakrawala Dinamika Energi,IDN,coal-mining,-3.309597,101.958069,769
16633,CES Coal Mine,Cereno Energi Selaras,Cereno Energi Selaras,IDN,coal-mining,-3.308563,101.960219,770
3163917,CG Coal Mine,Candra Gemilang,Candra Gemilang,IDN,coal-mining,-2.115915,116.053043,771
3163921,CJP Coal Mine,Crista Jaya Perkasa,Crista Jaya Perkasa,IDN,coal-mining,-1.682062,103.690502,772
3163922,CKT Coal Mine,Cipta Karya Tani,Cipta Karya Tani,IDN,coal-mining,-0.902728,116.897185,773
16725,CPP Coal Mine,Cinta Puri Pratama,Cinta Puri Pratama,IDN,coal-mining,-3.233158,114.989603,774
16028,CTSP Coal Mine,Aeka Tambang,Aeka Tambang,IDN,coal-mining,-1.968396,103.007487,775
16025,Cahaya Energi Mandiri Coal Mine,Cahaya Tiara Group,Cahaya Tiara Group,IDN,coal-mining,-0.542138,117.190729,776
16026,Cipta Buana Seraya Coal Mine,Cipta Buana Seraya,Cipta Buana Seraya,IDN,coal-mining,-3.75918,102.509461,777
16027,Ciracap Sumber Prima Coal Mine,Ciracap Sumber Prima,Ciracap Sumber Prima,IDN,coal-mining,-2.052439,115.603827,778
3163920,Citra Coal Mine,Citra,Citra,IDN,coal-mining,-0.764205,117.131503,779
16590,DAS Coal Mine,Duta Alam Sumatera,Duta Alam Sumatera,IDN,coal-mining,-3.754362,103.61721,780
3163924,DBS Coal Mine,Daya Bambu Sejahtera,Daya Bambu Sejahtera,IDN,coal-mining,-1.449982,102.688243,781
16029,DBU Coal Mine,Duta Bara Utama,Duta Bara Utama,IDN,coal-mining,-3.656439,103.809545,782
3163928,DMC Coal Mine,Risjadson Development,Risjadson Development,IDN,coal-mining,2.881242,116.982546,783
3163929,DMP Coal Mine,Dayak Membangun Pratama,Dayak Membangun Pratama,IDN,coal-mining,-0.998738,113.88445,784
16634,DMS Coal Mine,Daya Mitra Sejati,Daya Mitra Sejati,IDN,coal-mining,-3.236444,115.029654,785
3163930,DPP Coal Mine,Dermaga Pratama Perkasa,Dermaga Pratama Perkasa,IDN,coal-mining,-0.294693,117.145743,786
16547,DSAS Coal Mine,Dasrat Sarana Arang Sejati,Dasrat Sarana Arang Sejati,IDN,coal-mining,-0.620666,100.786125,787
3163931,DTKB Coal Mine,Daya Taka Kreasi Bersama,Daya Taka Kreasi Bersama,IDN,coal-mining,0.521002,115.806053,788
16031,DTR Coal Mine,Medco Energi Internasional,Medco Energi Internasional,IDN,coal-mining,4.13045,117.192819,789
3163933,DUM Coal Mine,Dunia Usaha Maju,Dunia Usaha Maju,IDN,coal-mining,-0.346142,117.203438,790
3163927,Dizamatra Powerindo Coal Mine,Dizamatra Powerindo,Dizamatra Powerindo,IDN,coal-mining,-3.753965,103.636648,791
16591,Dutadharma Utama Coal Mine,Dutadharma Utama,Dutadharma Utama,IDN,coal-mining,-3.786229,115.31744,792
3163934,EBA Coal Mine,Energitama Bumi Arum,Energitama Bumi Arum,IDN,coal-mining,-0.984143,114.931117,793
3163935,EBJM Coal Mine,Energi Bumi Jaya Mandiri,Energi Bumi Jaya Mandiri,IDN,coal-mining,-2.807741,115.379499,794
3163936,EBL Coal Mine,Energi Batubara Lestari,PT Saibatama Internasional Mandiri,IDN,coal-mining,-2.95744,115.151507,795
16682,EBT Coal Mine,Energi Bumi Tapin,Energi Bumi Tapin,IDN,coal-mining,-3.052748,115.163725,796
3163937,ECI Coal Mine,Energy Cahaya Industritama,Energy Cahaya Industritama,IDN,coal-mining,-0.606803,117.248693,797
16032,EEI Coal Mine,PT Exploitasi Energi Indonesia,PT Exploitasi Energi Indonesia,IDN,coal-mining,-3.863435,115.194243,798
16727,EEM Coal Mine,Era Energi Mandiri,Era Energi Mandiri,IDN,coal-mining,-3.889,103.581,799
3163941,ESE Coal Mine,Ena Sarana Energi,Ena Sarana Energi,IDN,coal-mining,1.098196,116.164482,800
3163939,Elynda Jaya Coal Mine,Elynda Jaya (Semboja),Elynda Jaya (Semboja),IDN,coal-mining,0.77882,117.516551,801
16033,Embalut Coal Mine,PT Kitadin,PT Indo Tambangraya Megah,IDN,coal-mining,-0.32129,117.118326,802
16036,FKP Coal Mine,PT Firman Ketaun Perkasa,PT Bayan Resources,IDN,coal-mining,-0.292828,115.887316,803
3163945,FRI Coal Mine,Fontana Resources Indonesia,Fontana Resources Indonesia,IDN,coal-mining,-1.085345,114.926158,804
16034,Fajar Mineral Alami International Coal Mine,Fajar Mineral Alami International,Fajar Mineral Alami International,IDN,coal-mining,-3.335555,115.666774,805
16035,Fajar-Tabang-Brian Coal Mines,PT Bara Tabang,PT Bayan Resources,IDN,coal-mining,0.550906,116.126335,806
16038,GBP Coal Mine,PT Gunungbayan Pratamacoal,PT Bayan Resources,IDN,coal-mining,-0.577729,116.027835,807
16728,GBR Coal Mine,Global Borneo Resources,Global Borneo Resources,IDN,coal-mining,-3.469532,115.584255,808
3163948,GBU Coal Mine,Gunung Bara Utama,Gunung Bara Utama,IDN,coal-mining,-0.408133,115.735322,809
3163949,GIE Coal Mine,Globalindo Inti Energi,Globalindo Inti Energi,IDN,coal-mining,-0.796015,117.2007,810
16039,GPB Coal Mine,PT Bumi Resources,PT Bumi Resources,IDN,coal-mining,0.370887,116.136031,811
16966,GPK Coal Mine,PT Graha Panca Karsa,PT Indo Tambangraya Megah,IDN,coal-mining,-0.150391,115.901018,812
3163952,GPM Coal Mine,Gerbang Petani Mandiri,Gerbang Petani Mandiri,IDN,coal-mining,0.076535,115.966728,813
16497,Gajah Mada Coal Mine,Gajah Mada,Gajah Mada,IDN,coal-mining,-3.23697,116.013122,814
3163950,Golden Great Borneo Coal Mine,PT Golden Great Borneo,PT Golden Great Borneo,IDN,coal-mining,-3.701838,103.699957,815
3163954,Gunung Limo Coal Mine,Gunung Limo,Gunung Limo,IDN,coal-mining,-3.199378,115.653403,816
16635,Gunung Sambung Coal Mine,Gunung Sambung,Gunung Sambung,IDN,coal-mining,-3.239378,115.150065,817
3163955,HAA Coal Mine,Hamparan Anugrah Abadi,Hamparan Anugrah Abadi,IDN,coal-mining,2.058947,117.143789,818
16683,HHI Coal Mine,Hidup Hidayah Ilahi,Hidup Hidayah Ilahi,IDN,coal-mining,-3.469721,115.582509,819
3163956,Hamparan Mulya Coal Mine,Hamparan Mulya,Hamparan Mulya,IDN,coal-mining,-1.028895,115.044303,820
3163957,Harindo Wahana Coal Mine,Harindo Wahana,Harindo Wahana,IDN,coal-mining,-0.099246,116.834259,821
16041,Hasil Bumi Persada Coal Mine,Hasil Bumi Persada,Hasil Bumi Persada,IDN,coal-mining,-4.693093,122.876195,822
3163959,Haswi Kencana Indah Coal Mine,Haswi Kencana Indah,Haswi Kencana Indah,IDN,coal-mining,-1.616782,103.586325,823
16592,Hirzan Raya Coal Mine,Hirzan Raya,Hirzan Raya,IDN,coal-mining,-3.250428,114.974036,824
3163960,IBAP Coal Mine,Inti Baratama Anugerah Prima,Inti Baratama Anugerah Prima,IDN,coal-mining,-1.58728,101.943946,825
3163961,IBN Coal Mine,Inti Bara Nusalima,Inti Bara Nusalima,IDN,coal-mining,-1.867,103.08,826
16042,IBP Coal Mine,Resource Alam Indonesia,Resource Alam Indonesia,IDN,coal-mining,-0.320587,117.084636,827
3163963,IKJ Coal Mine,Indomas Karya Jaya,Indomas Karya Jaya,IDN,coal-mining,-0.796489,117.090409,828
16684,IKM Coal Mine,Intan Karya Mandiri,Intan Karya Mandiri,IDN,coal-mining,-3.227966,115.020082,829
16729,IMM Coal Mine,Indomarta Multi Mining,Indomarta Multi Mining,IDN,coal-mining,-3.212761,115.036047,830
3163970,IPC Coal Mine,International Prima Coal,International Prima Coal,IDN,coal-mining,-0.678265,117.140294,831
16046,IRS Coal Mine,Indonesia Riau Sri Avantika,Indonesia Riau Sri Avantika,IDN,coal-mining,-3.213312,101.822441,832
16043,Indexim Coalindo Coal Mine,Indexim Coalindo,Indexim Coalindo,IDN,coal-mining,0.894663,117.80553,833
16044,Indominco Mandiri Coal Mine,PT Indominco Mandiri,PT Indo Tambangraya Megah,IDN,coal-mining,0.145964,117.291968,834
16045,Indomining Coal Mine,Toba Bumi Energi,Timah (Persero),IDN,coal-mining,-0.664038,117.257289,835
3163967,Indra Berjaya Coal Mine,Indra Berjaya,Indra Berjaya,IDN,coal-mining,0.301823,116.387146,836
3163968,Injatama Coal Mine,Injatama,Injatama,IDN,coal-mining,-3.381209,101.827677,837
3163969,Inti Bara Perdana Coal Mine,Inti Bara Perdana,Inti Bara Perdana,IDN,coal-mining,-3.84818,102.314314,838
3163975,JAR Coal Mine,Jasa Andhika Raya,Jasa Andhika Raya,IDN,coal-mining,0.62584,117.064972,839
16048,JBG Coal Mine,PT Jorong Barutama Greston,PT Indo Tambangraya Megah,IDN,coal-mining,-3.978889,114.967228,840
3163977,JDM Coal Mine,Jembatan Dua Mandiri,Jembatan Dua Mandiri,IDN,coal-mining,-1.827354,115.239067,841
3163979,JMS Coal Mine,Jasa Mandiri Sejahtera,Jasa Mandiri Sejahtera,IDN,coal-mining,-0.319903,117.228723,842
3163981,JP Coal Mine,Jaya Prima,Jaya Prima,IDN,coal-mining,-1.002903,116.956741,843
16047,Jangkar Prima Coal Mine,Bajaj Group,Bajaj Group,IDN,coal-mining,-2.252444,111.540529,844
3163978,Jembayan Coal Mine,Sakari Resources,PT Astrindo Nusantara Infrastruktur,IDN,coal-mining,-0.196807,117.132998,845
16049,Jongkang I Coal Mine,Karya Putra Bersama,Karya Putra Bersama,IDN,coal-mining,-0.503249,117.046164,846
3163982,KAI Coal Mine,Kurnia Alam Investama,Kurnia Alam Investama,IDN,coal-mining,-1.806293,102.895897,847
3163987,KB Coal Mine,Kaltim Batumanunggal,Kaltim Batumanunggal,IDN,coal-mining,-0.797,117.100946,848
3163988,KBB Coal Mine,CircleOne Consulting,CircleOne Consulting,IDN,coal-mining,-2.616597,102.780025,849
3163989,KBM Coal Mine,Keritang Buana Mining,Keritang Buana Mining,IDN,coal-mining,-0.961959,102.712433,850
3163990,KBU Coal Mine,Kapuas Bara Utama,Kapuas Bara Utama,IDN,coal-mining,-1.054812,114.24076,851
3163992,KD Coal Mine,Karya Desa,Karya Desa,IDN,coal-mining,-0.717714,117.085021,852
16053,KEL Coal Mine,Mercuria Energy Group,Mercuria Energy Group,IDN,coal-mining,-2.597793,115.971605,853
3163997,KGLR Coal Mine,Karya Gemilang Limpah Rejeki,Karya Gemilang Limpah Rejeki,IDN,coal-mining,-1.984282,115.339107,854
3163998,KH Coal Mine,Karya Harapan,Karya Harapan,IDN,coal-mining,-1.093275,117.016143,855
3164000,KJ Coal Mine,Karya Jaya,Karya Jaya,IDN,coal-mining,-0.796303,117.071573,856
16056,KKA Coal Mine,Kasih Karya Agung,Kasih Karya Agung,IDN,coal-mining,-3.789549,103.683045,857
3164002,KKE Coal Mine,Kutai Kumala Energy,Kutai Kumala Energy,IDN,coal-mining,-0.143191,117.240753,858
3164003,KMB Coal Mine,Krida Makmur Bersama,Krida Makmur Bersama,IDN,coal-mining,-0.668618,117.183286,859
3164004,KMIA Coal Mine,Khotai Makmur Insan Abadi,Khotai Makmur Insan Abadi,IDN,coal-mining,-0.424481,117.08217,860
3164007,KPB Coal Mine,Karya Putra Borneo,Karya Putra Borneo,IDN,coal-mining,-0.755698,117.055914,861
3164009,KPUC Coal Mine,Kayan Putra Utama Coal,Kayan Putra Utama Coal,IDN,coal-mining,-0.292322,117.079914,862
3164010,KRA Coal Mine,Kemilau Rindang Abadi,Kemilau Rindang Abadi,IDN,coal-mining,-0.228293,117.11568,863
16058,KRU Coal Mine,Kusuma Raya Utama,Jiangxi,IDN,coal-mining,-6.172984,106.809191,864
3164012,KUP Coal Mine,Karya Usaha Pertiwi,Karya Usaha Pertiwi,IDN,coal-mining,-0.065957,117.198212,865
16050,Kaltim Global Coal Mine,Archean Group,Archean Group,IDN,coal-mining,-3.141075,101.739834,866
