asset_id,asset_name,company_name,parent_name,country,sector,latitude,longitude,percent_interest_parent,start_year,uid
25493979,Acacia,TotalEnergies,TotalEnergies,AGO,oil and gas production and transport,-7.6377,12.023,38.0,,CLT_0
25494078,Cabaca,Sinopec Group,Sinopec Group,AGO,oil and gas production and transport,-6.1098,11.3483,14.48,,CLT_1
25494120,Dalia,TotalEnergies,TotalEnergies,AGO,oil and gas production and transport,-7.6692,11.7752,38.0,,CLT_2
25494189,Girassol,TotalEnergies,TotalEnergies,AGO,oil and gas production and transport,-7.6509,11.7173,38.00000000000001,,CLT_3
25494277,Kissanje-Kizomba,Equinor,Equinor,AGO,oil and gas production and transport,-6.3469,11.1556,12.000000000000002,,CLT_4
25494311,Mafumeira,TotalEnergies,TotalEnergies,AGO,oil and gas production and transport,-5.6749,11.9634,10.0,,CLT_5
25494321,Malongo,TotalEnergies,TotalEnergies,AGO,oil and gas production and transport,-5.4129,12.0649,10.0,,CLT_6
25494359,Mondo,Equinor,Equinor,AGO,oil and gas production and transport,-6.1677,11.2629,12.0,,CLT_7
25494366,Mostarda,TotalEnergies,TotalEnergies,AGO,oil and gas production and transport,-7.3773,11.3785,30.0,,CLT_8
25494412,PSVM Complex,Sinopec Group,Sinopec Group,AGO,oil and gas production and transport,-6.2519,10.7246,8.249999999999998,,CLT_9
25494432,Plutonio,Azule Energy,Azule Energy,AGO,oil and gas production and transport,-7.8625,12.1623,45.99999999999999,,CLT_10
25494469,Rosa,TotalEnergies,TotalEnergies,AGO,oil and gas production and transport,-7.5066,11.6086,38.0,,CLT_11
25494552,Takula,TotalEnergies,TotalEnergies,AGO,oil and gas production and transport,-5.2538,11.8467,10.0,,CLT_12
25494668,Zinia,TotalEnergies,TotalEnergies,AGO,oil and gas production and transport,-7.5406,12.1592,37.99999999999999,,CLT_13
25494420,Patos-Marinza,Geo-Jade Petroleum,Geo-Jade Petroleum,ALB,oil and gas production and transport,40.7705,19.6434,100.0,,CLT_14
25494085,Carina-Fenix-Orion,TotalEnergies,TotalEnergies,ARG,oil and gas production and transport,-52.9031,-67.3443,37.50000000000001,,CLT_15
25494090,Cerro Dragon,BP,BP,ARG,oil and gas production and transport,-45.7519,-68.2639,50.0,,CLT_16
25494150,El Mangrullo,Pampa Energia,Pampa Energia,ARG,oil and gas production and transport,-38.5468,-69.4876,100.0,,CLT_17
25494152,El Porton,YPF,YPF,ARG,oil and gas production and transport,-37.1222,-69.6575,100.0,,CLT_18
25494154,El Tordillo,YPF,YPF,ARG,oil and gas production and transport,-45.8604,-67.9369,12.199999999999998,,CLT_19
25494161,Estacion Fernandez Oro,YPF,YPF,ARG,oil and gas production and transport,-38.9307,-68.164,57.01058040426417,,CLT_20
25494292,Las Heras,YPF,YPF,ARG,oil and gas production and transport,-46.4708,-68.6525,94.25730079047386,,CLT_21
25494302,LomaLata,YPF,YPF,ARG,oil and gas production and transport,-38.4593,-68.7088,100.0,,CLT_22
25494304,Los Perales,YPF,YPF,ARG,oil and gas production and transport,-46.1556,-69.1997,100.0,,CLT_23
25494312,Magallanes,YPF,YPF,ARG,oil and gas production and transport,-52.5651,-68.322,50.0,,CLT_24
25494322,Manantiales Behr,YPF,YPF,ARG,oil and gas production and transport,-45.6348,-67.957,100.0,,CLT_25
25494464,Rincon del Mangrullo,YPF,YPF,ARG,oil and gas production and transport,-38.5698,-69.2575,89.06162782549252,,CLT_26
25494609,Vaca Muerta,YPF,YPF,ARG,oil and gas production and transport,-33.49,-68.6,27.4744714645594,,CLT_27
25494615,Vega Pleyade,TotalEnergies,TotalEnergies,ARG,oil and gas production and transport,-53.4357,-67.7269,37.5,,CLT_28
25494068,Brunello-Julemar,Kuwait Petroleum,Kuwait Petroleum,AUS,oil and gas production and transport,-20.0314,115.1765,35.0,,CLT_29
25494107,Codie Complex - coal bed methane,Sinopec Group,Sinopec Group,AUS,oil and gas production and transport,-26.9686,150.392,10.103366131187014,,CLT_30
25494164,Fairview - coal bed methane,Sinopec Group,Sinopec Group,AUS,oil and gas production and transport,-25.6128,148.9666,5.66,,CLT_31
25494188,Gippsland,ExxonMobil,ExxonMobil,AUS,oil and gas production and transport,-38.2896,148.0663,50.0,,CLT_32
25494197,Greater Gorgon,Osaka Gas,Osaka Gas,AUS,oil and gas production and transport,-20.5667,114.767,1.2500000000000002,,CLT_33
25494230,Ichthys,TotalEnergies,TotalEnergies,AUS,oil and gas production and transport,-13.861,123.2759,26.0,,CLT_34
25494244,Janzlo,Osaka Gas,Osaka Gas,AUS,oil and gas production and transport,-19.8333,114.4667,1.25,,CLT_35
25494275,Kingfish,ExxonMobil,ExxonMobil,AUS,oil and gas production and transport,-38.5981,148.1885,50.0,,CLT_36
25494293,Laverda,Woodside,Woodside,AUS,oil and gas production and transport,-21.5356,113.8463,60.0,,CLT_37
25494377,NWS Project,Mitsubishi,Mitsubishi,AUS,oil and gas production and transport,-19.452,116.4856,8.321797664204524,,CLT_38
25494390,North Rankin,Mitsubishi,Mitsubishi,AUS,oil and gas production and transport,-19.5652,116.1566,7.9,,CLT_39
25494391,Norton,Woodside,Woodside,AUS,oil and gas production and transport,-21.54,113.85,60.00000000000001,,CLT_40
25494429,Perseus,Mitsubishi,Mitsubishi,AUS,oil and gas production and transport,-19.5703,116.1063,7.9,,CLT_41
25494431,Pluto,Tokyo Gas,Tokyo Gas,AUS,oil and gas production and transport,-19.9167,115.1167,4.141985232898542,,CLT_42
25494439,Prelude,Shell,Shell,AUS,oil and gas production and transport,-13.7291,123.273,67.5,,CLT_43
25494461,"Reedy Creek, Clifford East, Combabula, Lucky Gully, Ramyard",Sinopec Group,Sinopec Group,AUS,oil and gas production and transport,-26.3437,149.4063,23.18,,CLT_44
25494545,Surat - coal bed methane,Sinopec Group,Sinopec Group,AUS,oil and gas production and transport,-26.9497,150.247,15.163538906760898,,CLT_45
25494554,Talinga-Orana - coal bed methane,Sinopec Group,Sinopec Group,AUS,oil and gas production and transport,-26.8265,150.3105,25.0,,CLT_46
25494634,Wheatstone,Mitsubishi,Mitsubishi,AUS,oil and gas production and transport,-19.8676,115.2886,3.979999999999999,,CLT_47
25494028,Azeri,MOL,MOL,AZE,oil and gas production and transport,40.0781,51.2386,8.593100202688396,,CLT_48
25494207,Guneshli,Socar,Socar,AZE,oil and gas production and transport,40.1526,51.1048,100.0,,CLT_49
25494512,Shah Deniz,LUKOIL,LUKOIL,AZE,oil and gas production and transport,39.8144,50.4522,19.99,,CLT_50
25494005,Anderlues,Francaise de lEnergie,Francaise de lEnergie,BEL,oil and gas production and transport,50.55,4.27,50.0,,CLT_51
25494053,Bibiyana,Chevron,Chevron,BGD,oil and gas production and transport,24.7,91.38,100.0,,CLT_52
25494208,Habiganj,Petrobangla,Petrobangla,BGD,oil and gas production and transport,24.2319,91.3797,100.0,,CLT_53
25494242,Jalalabad,Chevron,Chevron,BGD,oil and gas production and transport,24.9274,91.9096,100.0,,CLT_54
25494574,Titas,Petrobangla,Petrobangla,BGD,oil and gas production and transport,23.9952,91.1188,100.0,,CLT_55
25494590,Tyulenovo,OGEP Bulgaria,OGEP Bulgaria,BGR,oil and gas production and transport,43.525,28.5875,100.0,,CLT_56
25494270,Khuff Gas,Tatweer Petroleum,Tatweer Petroleum,BHR,oil and gas production and transport,26.038,50.539,100.0,,CLT_57
25494335,Mauddud,Tatweer Petroleum,Tatweer Petroleum,BHR,oil and gas production and transport,26.0333,50.532,100.00000000000004,,CLT_58
25494536,Spanish Lookout,Belize Natural Energy,Belize Natural Energy,BLZ,oil and gas production and transport,17.2467,-88.9994,100.0,,CLT_59
25494234,Incahuasi,TotalEnergies,TotalEnergies,BOL,oil and gas production and transport,-19.8321,-63.6954,49.99999999999999,,CLT_60
25494327,Margarita-Huacaya,Shell,Shell,BOL,oil and gas production and transport,-21.0924,-63.7526,37.5,,CLT_61
25494475,Sabalo,TotalEnergies,TotalEnergies,BOL,oil and gas production and transport,-21.2635,-63.6439,15.0,,CLT_62
25494649,Yapacani,Repsol,Repsol,BOL,oil and gas production and transport,-17.0111,-64.0619,48.33,,CLT_63
25493997,Albacora,Sinopec Group,Sinopec Group,BRA,oil and gas production and transport,-22.1235,-39.8568,2.490242869563404,,CLT_64
25494021,Atapu Unitisation (P-70),Sinopec Group,Sinopec Group,BRA,oil and gas production and transport,-24.9518,-42.4688,0.18,,CLT_65
25494035,Baleia Azul,Petrobras,Petrobras,BRA,oil and gas production and transport,-21.339,-40.001,100.0,,CLT_66
25494046,Berbigao/ Sururu I (x-Iara) (P-68),Sinopec Group,Sinopec Group,BRA,oil and gas production and transport,-24.9939,-42.6902,3.0000000000000004,,CLT_67
25494075,Buzios,CNOOC,CNOOC,BRA,oil and gas production and transport,-24.652,-42.415,7.329999999999999,,CLT_68
25494175,Frade,PRIO,PRIO,BRA,oil and gas production and transport,-21.8757,-39.842,100.0,,CLT_69
25494235,Iracema,Sinopec Group,Sinopec Group,BRA,oil and gas production and transport,-25.2602,-42.8345,3.0,,CLT_70
25494249,Jubarte,Petrobras,Petrobras,BRA,oil and gas production and transport,-21.2494,-40.0503,100.0,,CLT_71
25494330,Marlim,Petrobras,Petrobras,BRA,oil and gas production and transport,-22.507,-40.0264,100.00000000000004,,CLT_72
25494346,Mexilhao,Petrobras,Petrobras,BRA,oil and gas production and transport,-24.4878,-44.1504,100.0,,CLT_73
25494468,Roncador,Equinor,Equinor,BRA,oil and gas production and transport,-21.9435,-39.7153,25.0,,CLT_74
25494499,Sapinhoa,Sinopec Group,Sinopec Group,BRA,oil and gas production and transport,-25.7044,-43.1755,10.0,,CLT_75
25494563,Tartaruga Verde+Mestica (Cid. Campos dos Goytacazes),Petronas,Petroliam Nasional,BRA,oil and gas production and transport,-22.9822,-40.7236,50.0,,CLT_76
25494586,Tupi,Sinopec Group,Sinopec Group,BRA,oil and gas production and transport,-25.5014,-42.7513,2.76,,CLT_77
25494306,Lower Greys,Barbados National Oil,Barbados National Oil,BRB,oil and gas production and transport,13.105,-59.5298,70.0,,CLT_78
25494636,Woodbourne,Barbados National Oil,Barbados National Oil,BRB,oil and gas production and transport,13.0989,-59.4975,70.0,,CLT_79
25494033,Bakken-CA,Unknown Owner,Unknown Owner,CAN,oil and gas production and transport,49.7058,-102.3448,1.0237286937847336,,CLT_80
25494084,Cardium,Canadian Natural Resources,Canadian Natural Resources,CAN,oil and gas production and transport,53.3579,-116.122,13.404061987247918,,CLT_81
25494101,Christina Lake,Cenovus Energy,Cenovus Energy,CAN,oil and gas production and transport,55.6117,-110.8062,72.3553223322696,,CLT_82
25494108,Cold Lake,Imperial Oil Resources,Imperial Oil Limited - Compagnie Petroliere Imperiale Ltee,CAN,oil and gas production and transport,54.6833,-110.4943,,,CLT_83
25494137,Duvernay,PetroChina,PetroChina,CAN,oil and gas production and transport,54.3152,-117.132,7.91438147958692,,CLT_84
25494170,Firebag,Suncor Energy,Suncor Energy,CAN,oil and gas production and transport,57.2219,-110.8629,,,CLT_85
25494172,Fort Hills,TotalEnergies,TotalEnergies,CAN,oil and gas production and transport,57.4653,-111.4674,31.230000000000004,,CLT_86
25494174,Foster Creek,Cenovus Energy,Cenovus Energy,CAN,oil and gas production and transport,55.0607,-110.459,100.0,,CLT_87
25494218,Hebron,Nalcor Energy,Nalcor Energy,CAN,oil and gas production and transport,46.5427,-48.5282,4.9,,CLT_88
25494222,Hibernia,Nalcor Energy,Nalcor Energy,CAN,oil and gas production and transport,46.7516,-48.7817,2.782128819721581,,CLT_89
25494225,Horizon,Canadian Natural Resources,Canadian Natural Resources,CAN,oil and gas production and transport,57.3937,-111.7624,100.0,,CLT_90
25494240,Jackfish,Canadian Natural Resources,Canadian Natural Resources,CAN,oil and gas production and transport,55.5237,-110.9803,100.0,,CLT_91
25494241,Jackpine,Canadian Natural Resources,Canadian Natural Resources,CAN,oil and gas production and transport,57.244,-111.2424,70.0,,CLT_92
25494263,Kearl,Imperial Oil Resources,Imperial Oil Limited - Compagnie Petroliere Imperiale Ltee,CAN,oil and gas production and transport,57.3897,-111.0506,,,CLT_93
25494309,MacKay River,PetroChina,PetroChina,CAN,oil and gas production and transport,57.0468,-111.8802,25.44775495363639,,CLT_94
25494362,Montney AB,Arc Resources,Arc Resources,CAN,oil and gas production and transport,56.5716,-121.2219,43.3657473237874,,CLT_95
25494363,Montney BC,Canadian Natural Resources,Canadian Natural Resources,CAN,oil and gas production and transport,55.86,-120.16,7.244968314765163,,CLT_96
25494373,Muskeg River,Canadian Natural Resources,Canadian Natural Resources,CAN,oil and gas production and transport,57.238,-111.4379,70.0,,CLT_97
25494423,Peace River,Canadian Natural Resources,Canadian Natural Resources,CAN,oil and gas production and transport,56.256,-116.822,23.675455822780307,,CLT_98
25494440,Primrose,Canadian Natural Resources,Canadian Natural Resources,CAN,oil and gas production and transport,54.8496,-110.5122,100.0,,CLT_99
25494537,Spirit River,TAQA,TAQA,CAN,oil and gas production and transport,53.9289,-117.8003,7.4502412043411,,CLT_100
25494546,Surmont,TotalEnergies,TotalEnergies,CAN,oil and gas production and transport,56.1715,-110.9358,50.000000000000014,,CLT_101
25494112,Cullen,ENAP Sipetrol,ENAP Sipetrol,CHL,oil and gas production and transport,-52.982,-68.73,100.0,,CLT_102
25494123,Daniel,ENAP Sipetrol,ENAP Sipetrol,CHL,oil and gas production and transport,-52.3368,-68.6932,100.00000000000004,,CLT_103
25494008,Ansai,PetroChina,PetroChina,CHN,oil and gas production and transport,36.8912,109.1482,100.0,,CLT_104
25494009,Anyue-Moxi,PetroChina,PetroChina,CHN,oil and gas production and transport,31.04,105.75,96.28652083763264,,CLT_105
25494065,Bozhong,CNOOC,CNOOC,CHN,oil and gas production and transport,38.2317,119.3591,96.3527423531895,,CLT_106
25494082,Caofeidian,PetroChina,PetroChina,CHN,oil and gas production and transport,38.7243,118.7814,7.785344153924648,,CLT_107
25494092,Changning Shale Gas,PetroChina,PetroChina,CHN,oil and gas production and transport,29.3957,104.9568,100.00000000000004,,CLT_108
25494093,Changqing,PetroChina,PetroChina,CHN,oil and gas production and transport,37.2891,109.0455,100.0,,CLT_109
25494097,Chengdao,Sinopec,Sinopec,CHN,oil and gas production and transport,38.2654,118.7814,100.0,,CLT_110
25494122,Dangang,PetroChina,PetroChina,CHN,oil and gas production and transport,38.6514,117.4497,100.0,,CLT_111
25494131,Dina,PetroChina,PetroChina,CHN,oil and gas production and transport,42.0187,83.7808,98.24638509981202,,CLT_112
25494168,Fengchen,Sinopec,Sinopec,CHN,oil and gas production and transport,45.1,84.64,100.0,,CLT_113
25494178,Fuling,Sinopec,Sinopec,CHN,oil and gas production and transport,29.74,107.6,100.0,,CLT_114
25494221,Hetianhe,PetroChina,PetroChina,CHN,oil and gas production and transport,38.5694,80.7236,100.0,,CLT_115
25494226,Huizhou,CNOOC,CNOOC,CHN,oil and gas production and transport,21.2028,115.0361,100.0,,CLT_116
25494266,Keshen,PetroChina,PetroChina,CHN,oil and gas production and transport,41.9244,82.1299,100.0,,CLT_117
25494297,Liaohe,PetroChina,PetroChina,CHN,oil and gas production and transport,41.3017,122.5457,91.84476090803938,,CLT_118
25494300,Liwan 3-1,Cenovus Energy,Cenovus Energy,CHN,oil and gas production and transport,19.9145,115.4406,49.0,,CLT_119
25494425,Penglai,ConocoPhillips,ConocoPhillips,CHN,oil and gas production and transport,38.3619,120.0853,48.99999999999999,,CLT_120
25494444,Puguang,Sinopec,Sinopec,CHN,oil and gas production and transport,31.5314,107.7632,100.00000000000004,,CLT_121
25494449,Qinghai-Sebei,PetroChina,PetroChina,CHN,oil and gas production and transport,37.3377,94.1337,100.0,,CLT_122
25494517,Shengli,Sinopec,Sinopec,CHN,oil and gas production and transport,37.1771,118.4754,100.0,,CLT_123
25494521,Siwujiazi (Jilin),PetroChina,PetroChina,CHN,oil and gas production and transport,43.7965,124.5063,100.0,,CLT_124
25494542,Suizhong,CNOOC,CNOOC,CHN,oil and gas production and transport,39.9501,120.836,100.0,,CLT_125
25494543,Sulige,PetroChina,PetroChina,CHN,oil and gas production and transport,38.8108,108.5523,63.455880395328734,,CLT_126
25494550,Tahe,Sinopec,Sinopec,CHN,oil and gas production and transport,41.1599,83.8913,100.00000000000004,,CLT_127
25494561,Tarim,PetroChina,PetroChina,CHN,oil and gas production and transport,40.9466,82.2528,100.0,,CLT_128
25494630,Weiyuan shale gas,PetroChina,PetroChina,CHN,oil and gas production and transport,29.5942,104.3973,100.0,,CLT_129
25494640,Xifeng,PetroChina,PetroChina,CHN,oil and gas production and transport,35.7341,107.8826,100.0,,CLT_130
25494641,Xingiang-Karamay,PetroChina,PetroChina,CHN,oil and gas production and transport,46.0019,85.9836,100.0,,CLT_131
25494648,Yanan,Shaanxi Yanchang Petroleum (Group),Shaanxi Yanchang Petroleum (Group),CHN,oil and gas production and transport,39.1,110.1,100.0,,CLT_132
25494655,Yuanba,Sinopec,Sinopec,CHN,oil and gas production and transport,31.46,106.02,100.0,,CLT_133
25494039,Baobab,Canadian Natural Resources,Canadian Natural Resources,CIV,oil and gas production and transport,4.967,-4.5113,57.61000000000001,,CLT_134
25494160,Espoir,Canadian Natural Resources,Canadian Natural Resources,CIV,oil and gas production and transport,5.0119,-4.4359,58.67,,CLT_135
25493971,Abana,Sinopec Group,Sinopec Group,CMR,oil and gas production and transport,4.1916,8.4825,40.0,,CLT_136
25494032,Bakassi,Sinopec Group,Sinopec Group,CMR,oil and gas production and transport,4.2648,8.4964,24.500000000000004,,CLT_137
25494058,Boa,Sinopec Group,Sinopec Group,CMR,oil and gas production and transport,4.2817,8.4687,24.5,,CLT_138
25494279,Kombo,Sinopec Group,Sinopec Group,CMR,oil and gas production and transport,4.2891,8.4625,24.500000000000004,,CLT_139
25494298,Liawenda,Perenco,Perenco,COD,oil and gas production and transport,-5.8039,12.2973,80.0,,CLT_140
25494347,Mibale,Perenco,Perenco,COD,oil and gas production and transport,-5.8289,12.2074,100.0,,CLT_141
25494580,Tshiala,Perenco,Perenco,COD,oil and gas production and transport,-5.9404,12.2198,100.0,,CLT_142
25494299,Likouala,Eni,Eni,COG,oil and gas production and transport,-5.1974,11.6979,35.0,,CLT_143
25494356,Moho,TotalEnergies,TotalEnergies,COG,oil and gas production and transport,-5.2489,11.3609,45.48,,CLT_144
25494374,N'Kossa,TotalEnergies,TotalEnergies,COG,oil and gas production and transport,-5.2437,11.5491,45.47999999999999,,CLT_145
25494375,N'Soko,TotalEnergies,TotalEnergies,COG,oil and gas production and transport,-4.6682,11.4909,2.0024669171851803,,CLT_146
25494080,Cano Limon,Repsol,Repsol,COL,oil and gas production and transport,6.955,-71.0945,5.63,,CLT_147
25494087,Castilla,Ecopetrol,Colombia Ministry of Mines and Energy,COL,oil and gas production and transport,3.853,-73.6549,100.0,,CLT_148
25494099,Chichimene,Ecopetrol,Colombia Ministry of Mines and Energy,COL,oil and gas production and transport,3.9297,-73.6983,100.0,,CLT_149
25494102,Chuchupa,Ecopetrol,Colombia Ministry of Mines and Energy,COL,oil and gas production and transport,11.8234,-72.8427,100.0,,CLT_150
25494114,Cupiagua,Ecopetrol,Colombia Ministry of Mines and Energy,COL,oil and gas production and transport,5.2301,-72.6179,100.0,,CLT_151
25494115,Cusiana,Ecopetrol,Colombia Ministry of Mines and Energy,COL,oil and gas production and transport,5.0202,-72.6895,98.65,,CLT_152
25494239,Jacana,GeoPark,GeoPark,COL,oil and gas production and transport,4.3884,-72.7214,45.0,,CLT_153
25494291,La Cira,Ecopetrol,Colombia Ministry of Mines and Energy,COL,oil and gas production and transport,6.9917,-73.775,63.0,,CLT_154
25494422,Pauto Sur,Repsol,Repsol,COL,oil and gas production and transport,5.4282,-72.45,0.1752901224354879,,CLT_155
25494470,Rubiales,Ecopetrol,Colombia Ministry of Mines and Energy,COL,oil and gas production and transport,3.8077,-71.3983,100.0,,CLT_156
25494506,Seboruco,Cupet,Cupet,CUB,oil and gas production and transport,23.133,-81.643,100.0,,CLT_157
25494611,Varadero,Cupet,Cupet,CUB,oil and gas production and transport,23.0978,-81.2594,100.0,,CLT_158
25494191,Goldenstedt,Shell,Shell,DEU,oil and gas production and transport,52.7862,8.3014,50.0,,CLT_159
25494548,Taaken-Rotenburg,Shell,Shell,DEU,oil and gas production and transport,53.1291,9.3838,32.953296166314644,,CLT_160
25494623,Voelkersen,Wintershall Dea,Wintershall Dea,DEU,oil and gas production and transport,52.9901,9.2326,100.0,,CLT_161
25494121,Dan ,TotalEnergies,TotalEnergies,DNK,oil and gas production and transport,55.4696,5.1337,43.2,,CLT_162
25494192,Gorm,TotalEnergies,TotalEnergies,DNK,oil and gas production and transport,55.5842,4.7777,43.2,,CLT_163
25494385,Nini,INEOS Group,INEOS Group Holdings,DNK,oil and gas production and transport,56.6752,5.3981,56.99999999999999,,CLT_164
25494049,Berkine Basin,TotalEnergies,TotalEnergies,DZA,oil and gas production and transport,30.8536,7.9451,7.485278747782809,,CLT_165
25494183,Gassi Touil,Sonatrach,Sonatrach,DZA,oil and gas production and transport,30.2714,6.4155,100.0,,CLT_166
25494215,Hassi Messaoud,Sonatrach,Sonatrach,DZA,oil and gas production and transport,31.608,5.923,100.0,,CLT_167
25494216,Hassi R'Mel,Sonatrach,Sonatrach,DZA,oil and gas production and transport,32.7551,3.261,99.99999999999996,,CLT_168
25494232,In Amenas,BP,BP,DZA,oil and gas production and transport,28.0355,9.4521,8.726599517000327,,CLT_169
25494233,In Salah,BP,BP,DZA,oil and gas production and transport,28.4851,2.325,33.15,,CLT_170
25494398,Ohanet,Sonatrach,Sonatrach,DZA,oil and gas production and transport,28.6955,8.7174,100.0,,CLT_171
25494411,Ourhoud,TotalEnergies,TotalEnergies,DZA,oil and gas production and transport,30.4595,8.1248,5.08,,CLT_172
25494462,Rhourde El Klef,Sonatrach,Sonatrach,DZA,oil and gas production and transport,30.1416,6.3134,100.0,,CLT_173
25494573,Tin Fouye,TotalEnergies,TotalEnergies,DZA,oil and gas production and transport,28.3853,7.4885,38.30426585035505,,CLT_174
25494577,Toual,Sonatrach,Sonatrach,DZA,oil and gas production and transport,29.4973,4.6471,72.36995176530328,,CLT_175
25494002,Amistad,Petroecuador,Petroecuador,ECU,oil and gas production and transport,-3.2652,-80.4735,100.0,,CLT_176
25494024,Auca,Petroecuador,Petroecuador,ECU,oil and gas production and transport,-0.6926,-76.8833,100.0,,CLT_177
25494116,Cuyabeno,Petroecuador,Petroecuador,ECU,oil and gas production and transport,0.003,-76.2572,100.0,,CLT_178
25494407,Oso-EC,Petroecuador,Petroecuador,ECU,oil and gas production and transport,-0.7079,-77.1472,100.0,,CLT_179
25494477,Sacha,Petroecuador,Petroecuador,ECU,oil and gas production and transport,-0.3125,-76.8575,100.0,,CLT_180
25494518,Shushufindi,Petroecuador,Petroecuador,ECU,oil and gas production and transport,-0.1667,-76.6333,100.0,,CLT_181
25494557,Tambococha,Petroecuador,Petroecuador,ECU,oil and gas production and transport,-0.9161,-75.6022,100.0,,CLT_182
25493975,Abu El Gharadiq,Sinopec Group,Sinopec Group,EGY,oil and gas production and transport,29.6723,28.5337,33.32999999999999,,CLT_183
25493999,Amal,PICO Cheiron Group,PICO Cheiron Group,EGY,oil and gas production and transport,28.0728,33.5694,100.0,,CLT_184
25494023,Atoll,BP,BP,EGY,oil and gas production and transport,32.2257,31.8863,100.0,,CLT_185
25494036,Baltim,Eni,Eni,EGY,oil and gas production and transport,31.8681,31.1923,50.0,,CLT_186
25494045,Belayim Complex,Eni,Eni,EGY,oil and gas production and transport,28.6169,33.1976,100.0,,CLT_187
25494048,Berenice,Sinopec Group,Sinopec Group,EGY,oil and gas production and transport,30.6212,26.0166,33.33,,CLT_188
25494386,Nooros,Eni,Eni,EGY,oil and gas production and transport,31.5866,31.2215,75.0,,CLT_189
25494396,October,Dragon-ENOC,Dragon-ENOC,EGY,oil and gas production and transport,28.8622,33.0876,100.0,,CLT_190
25494447,Qasr,Sinopec Group,Sinopec Group,EGY,oil and gas production and transport,30.6238,26.6823,33.3,,CLT_191
25494460,Raven,BP,BP,EGY,oil and gas production and transport,31.7665,29.9141,82.75,,CLT_192
25494632,West Delta Deep,Shell,Shell,EGY,oil and gas production and transport,32.032,30.4658,50.0,,CLT_193
25494669,Zohr,Eni,Eni,EGY,oil and gas production and transport,32.9409,32.3103,50.0,,CLT_194
25494622,Viura,Naturgy,Naturgy,ESP,oil and gas production and transport,42.3957,-2.5798,58.8,,CLT_195
25494399,Ojamaa,Viru Keemia Grupp AS,Viru Keemia Grupp AS,EST,oil and gas production and transport,59.3715,26.9495,100.0,,CLT_196
25494088,Cazaux,Vermilion Energy,Vermilion Energy,FRA,oil and gas production and transport,44.5407,-1.1819,100.0,,CLT_197
25494091,Champotran,Vermilion Energy,Vermilion Energy,FRA,oil and gas production and transport,48.7057,3.1057,100.0,,CLT_198
25494007,Anguille,TotalEnergies,TotalEnergies,GAB,oil and gas production and transport,-0.8941,8.6709,58.28,,CLT_199
25494162,Etame,Sinopec Group,Sinopec Group,GAB,oil and gas production and transport,-3.7597,10.5096,31.36,,CLT_200
25494163,Ezanga,State of Gabon,State of Gabon,GAB,oil and gas production and transport,-3.9624,10.5426,12.500000000000004,,CLT_201
25494283,Koula,Sinopec Group,Sinopec Group,GAB,oil and gas production and transport,-1.5545,9.9381,30.323473163449886,,CLT_202
25494451,Rabi,State of Gabon,State of Gabon,GAB,oil and gas production and transport,-1.9578,9.8671,10.0,,CLT_203
25494566,Tchatamba,Sinopec Group,Sinopec Group,GAB,oil and gas production and transport,-2.2349,9.2171,1.4595317409859172,,CLT_204
25494578,Toucan,State of Gabon,State of Gabon,GAB,oil and gas production and transport,-1.7916,9.8942,10.0,,CLT_205
25494051,Beryl,APA,APA,GBR,oil and gas production and transport,59.5498,1.5318,60.59000000000001,,CLT_206
25494066,Brae Complex,TAQA,TAQA,GBR,oil and gas production and transport,58.781,1.3194,76.17,,CLT_207
25494067,Britannia,Delek Group,Delek Group,GBR,oil and gas production and transport,58.0824,0.8413,32.3,,CLT_208
25494077,Buzzard,CNOOC,CNOOC,GBR,oil and gas production and transport,57.8046,-0.9782,43.21,,CLT_209
25494083,Captain,Delek Group,Delek Group,GBR,oil and gas production and transport,58.2985,-1.761,85.0,,CLT_210
25494105,Claire Complex,Shell,Shell,GBR,oil and gas production and transport,60.6845,-2.5534,27.969999999999995,,CLT_211
25494113,Culzean,TotalEnergies,TotalEnergies,GBR,oil and gas production and transport,57.1917,1.8884,49.99,,CLT_212
25494117,Cygnus,Spirit Energy,Centrica,GBR,oil and gas production and transport,54.5512,2.2729,,,CLT_213
25494155,Elgin,TotalEnergies,TotalEnergies,GBR,oil and gas production and transport,57.0122,1.84,46.17000000000001,,CLT_214
25494173,Forties,APA,APA,GBR,oil and gas production and transport,57.7307,0.9748,97.14,,CLT_215
25494177,Franklin,TotalEnergies,TotalEnergies,GBR,oil and gas production and transport,56.9539,1.8948,46.17,,CLT_216
25494181,Gannet Complex,Shell,Shell,GBR,oil and gas production and transport,57.1378,0.9908,41.77395083517755,,CLT_217
25494190,Golden Eagle,CNOOC,CNOOC,GBR,oil and gas production and transport,57.9761,-0.9144,36.54,,CLT_218
25494246,Jasmine,Eni,Eni,GBR,oil and gas production and transport,56.7093,2.1902,32.99999999999999,,CLT_219
25494313,Magnus,EnQuest,EnQuest,GBR,oil and gas production and transport,61.6157,1.2839,100.0,,CLT_220
25494463,Rhum,NIOC,NIOC,GBR,oil and gas production and transport,60.1178,1.723,50.0,,CLT_221
25494504,Schiehallion,Delek Group,Delek Group,GBR,oil and gas production and transport,60.3518,-4.0386,11.76,,CLT_222
25494489,Samgori,Block Energy,Block Energy,GEO,oil and gas production and transport,41.7065,45.1194,100.0,,CLT_223
25494198,Greater Jubilee,Tullow Oil,Tullow Oil,GHA,oil and gas production and transport,4.535,-2.9,38.89999999999999,,CLT_224
25494496,Sankofa,Eni,Eni,GHA,oil and gas production and transport,4.45,-2.52,44.440000000000005,,CLT_225
25493996,Alba,Chevron,Chevron,GNQ,oil and gas production and transport,3.9892,8.5449,32.0,,CLT_226
25494018,Aseng,Glencore,Glencore,GNQ,oil and gas production and transport,3.3728,9.1747,23.75,,CLT_227
25494658,Zafiro,ExxonMobil,ExxonMobil,GNQ,oil and gas production and transport,3.8026,8.0881,71.24999999999999,,CLT_228
25494441,Prinos,Energean Oil & Gas,Energean Oil & Gas,GRC,oil and gas production and transport,40.8059,24.495,100.0,,CLT_229
25494638,Xan,Perenco,Perenco,GTM,oil and gas production and transport,17.5299,-90.7847,100.0,,CLT_230
25494301,Liza Phase 1,CNOOC,CNOOC,GUY,oil and gas production and transport,8.1118,-56.9375,25.0,,CLT_231
25494236,Ivana,INA,INA,HRV,oil and gas production and transport,44.7399,13.262,100.0,,CLT_232
25494358,Molve,INA,INA,HRV,oil and gas production and transport,46.0967,17.0436,100.0,,CLT_233
25494038,Banyu Urip,PT Pertamina,Republic Of Indonesia,IDN,oil and gas production and transport,-7.1864,111.6952,,,CLT_234
25494135,Duri,PT Pertamina,Republic Of Indonesia,IDN,oil and gas production and transport,1.295,101.2325,,,CLT_235
25494243,Jangkrik,Eni,Eni,IDN,oil and gas production and transport,-1.3077,117.6932,55.00000000000001,,CLT_236
25494351,Minas,PT Pertamina,Republic Of Indonesia,IDN,oil and gas production and transport,0.7675,101.4355,,,CLT_237
25494424,Peciko,PT Pertamina,Republic Of Indonesia,IDN,oil and gas production and transport,-1.0503,117.363,,,CLT_238
25494509,Senoro-Toili,PT Pertamina,Republic Of Indonesia,IDN,oil and gas production and transport,-1.3693,122.4577,,,CLT_239
25494541,Suban,PT Pertamina,Republic Of Indonesia,IDN,oil and gas production and transport,-2.5398,103.3929,,,CLT_240
25494544,Sumpal,PT Pertamina,Republic Of Indonesia,IDN,oil and gas production and transport,-2.3258,103.6352,,,CLT_241
25494558,Tangguh,PT Pertamina,Republic Of Indonesia,IDN,oil and gas production and transport,-2.2694,133.101,,,CLT_242
25494584,Tunu-ID,PT Pertamina,Republic Of Indonesia,IDN,oil and gas production and transport,-0.5471,117.5876,,,CLT_243
25494119,D-34,BP,BP,IND,oil and gas production and transport,16.1767,82.6197,33.33,,CLT_244
25494323,Mangala-Bhagyam-Aishwarya,Vedanta Resources,Vedanta Resources,IND,oil and gas production and transport,25.99,71.34,70.0,,CLT_245
25494372,Mumbai High,ONGC,ONGC,IND,oil and gas production and transport,19.428,71.3874,100.0,,CLT_246
25494417,Panna Mukta,ONGC,ONGC,IND,oil and gas production and transport,19.26,72.12,100.0,,CLT_247
25494454,Raniganj - coal bed methane,Essar,Essar,IND,oil and gas production and transport,23.6289,87.115,64.50301589823381,,CLT_248
25494613,Vasai,ONGC,ONGC,IND,oil and gas production and transport,19.0875,72.0339,100.0,,CLT_249
25493978,Abushar,Iranian Offshore Oil,Iranian Offshore Oil,IRN,oil and gas production and transport,29.2715,49.4904,0.0,,CLT_250
25493985,Agha Jari,NIOC,NIOC,IRN,oil and gas production and transport,30.7746,49.7916,100.0,,CLT_251
25493986,Aghar,NIOC,NIOC,IRN,oil and gas production and transport,28.5833,52.8,100.0,,CLT_252
25493988,Ahwaz,NIOC,NIOC,IRN,oil and gas production and transport,31.1718,49.2374,100.0,,CLT_253
25494027,Azadegan South Phase 1,NIOC,NIOC,IRN,oil and gas production and transport,31.2267,47.7585,100.00000000000004,,CLT_254
25494052,Bibi Hakimeh,NIOC,NIOC,IRN,oil and gas production and transport,30.0572,50.6384,100.0,,CLT_255
25494098,Cheshmeh-Khosh,NIOC,NIOC,IRN,oil and gas production and transport,32.3454,47.7096,100.0,,CLT_256
25494127,Darkhovin Darquaian,NIOC,NIOC,IRN,oil and gas production and transport,30.7626,48.2276,100.0,,CLT_257
25494179,Gachsaran,NIOC,NIOC,IRN,oil and gas production and transport,30.2201,50.8063,100.0,,CLT_258
25494224,Homa,NIOC,NIOC,IRN,oil and gas production and transport,27.879,52.752,100.0,,CLT_259
25494257,Kangan,NIOC,NIOC,IRN,oil and gas production and transport,27.8605,52.0696,100.0,,CLT_260
25494325,Mansuri,NIOC,NIOC,IRN,oil and gas production and transport,30.8682,48.9784,100.0,,CLT_261
25494333,Marun,NIOC,NIOC,IRN,oil and gas production and transport,31.0377,49.4267,100.0,,CLT_262
25494379,Nar,NIOC,NIOC,IRN,oil and gas production and transport,27.9184,52.2221,100.00000000000004,,CLT_263
25494418,Parsi,NIOC,NIOC,IRN,oil and gas production and transport,31.1163,49.8525,100.00000000000004,,CLT_264
25494452,Rag-e-Sefid,NIOC,NIOC,IRN,oil and gas production and transport,30.3647,49.8683,100.0,,CLT_265
25494485,Salman,Iranian Offshore Oil,Iranian Offshore Oil,IRN,oil and gas production and transport,25.5278,53.1167,0.0,,CLT_266
25494514,Shanul,NIOC,NIOC,IRN,oil and gas production and transport,27.7053,53.2067,100.0,,CLT_267
25494549,Tabnak,NIOC,NIOC,IRN,oil and gas production and transport,27.2549,53.0317,100.0,,CLT_268
25494645,Yadavaran Phase 1,NIOC,NIOC,IRN,oil and gas production and transport,31.0659,47.9599,100.0,,CLT_269
25493976,Abu Ghirab,Missan Oil,Ministry of Oil (Iraq),IRQ,oil and gas production and transport,32.3911,47.3629,,,CLT_270
25493987,Ahdab,PetroChina,PetroChina,IRQ,oil and gas production and transport,32.378,45.6635,37.50000000000001,,CLT_271
25494076,Buzurgan ,Missan Oil,Ministry of Oil (Iraq),IRQ,oil and gas production and transport,32.26,47.24,,,CLT_272
25494165,Fakka,Missan Oil,Ministry of Oil (Iraq),IRQ,oil and gas production and transport,32.1713,47.5092,,,CLT_273
25494185,Gharraf,Mitsubishi,Mitsubishi,IRQ,oil and gas production and transport,31.7474,46.024,3.0,,CLT_274
25494210,Halfaya,PetroChina,PetroChina,IRQ,oil and gas production and transport,31.6879,47.4717,45.0,,CLT_275
25494269,Khor Mor,OMV,OMV,IRQ,oil and gas production and transport,35.1,44.8,10.0,,CLT_276
25494276,Kirkuk-Bab,KAR Group,KAR Group,IRQ,oil and gas production and transport,35.4742,43.7891,0.0,,CLT_277
25494315,Majnoon,Basra Oil,Basra Oil,IRQ,oil and gas production and transport,31.1261,47.5659,90.31493727719368,,CLT_278
25494471,Rumaila,PetroChina,PetroChina,IRQ,oil and gas production and transport,30.2285,47.3981,37.81741270292415,,CLT_279
25494560,Taq Taq,Sinopec Group,Sinopec Group,IRQ,oil and gas production and transport,35.9908,44.4734,36.0,,CLT_280
25494564,Tawke,NOC,NOC,IRQ,oil and gas production and transport,37.1181,42.9548,74.99999999999999,,CLT_281
25494633,West Qurna,PetroChina,PetroChina,IRQ,oil and gas production and transport,30.8958,47.3638,11.786614051260765,,CLT_282
25494670,Zubair,Eni,Eni,IRQ,oil and gas production and transport,30.445,47.6271,38.33816453058563,,CLT_283
25494296,Leviathan,Delek Group,Delek Group,ISR,oil and gas production and transport,33.0,33.64,45.34000000000001,,CLT_284
25494555,Tamar,Chevron,Chevron,ISR,oil and gas production and transport,33.02,34.04,25.0,,CLT_285
25494089,Cellino,Eni,Eni,ITA,oil and gas production and transport,42.6167,13.8692,100.0,,CLT_286
25494360,Monte Alpi,Eni,Eni,ITA,oil and gas production and transport,40.3272,15.9369,60.77000000000001,,CLT_287
25494361,Monte Enoc,Eni,Eni,ITA,oil and gas production and transport,40.3711,15.9182,60.77,,CLT_288
25494495,San Mauro,Gas Plus,Gas Plus,ITA,oil and gas production and transport,42.7044,13.8292,82.0,,CLT_289
25494569,Tempa Rossa,TotalEnergies,TotalEnergies,ITA,oil and gas production and transport,40.421,16.0667,50.0,,CLT_290
25494465,Risha,National Petroleum,National Petroleum,JOR,oil and gas production and transport,32.5722,39.0358,100.0,,CLT_291
25494350,Minami,Inpex,Inpex,JPN,oil and gas production and transport,37.8391,139.1646,99.84273620424683,,CLT_292
25493990,Akshabulak,PetroChina,PetroChina,KAZ,oil and gas production and transport,45.9528,65.7203,50.0,,CLT_293
25494254,Kalamkas,PetroChina,PetroChina,KAZ,oil and gas production and transport,45.3727,51.9286,50.0,,CLT_294
25494259,Karachaganak,Eni,Eni,KAZ,oil and gas production and transport,51.3158,53.26,29.250000000000004,,CLT_295
25494261,Kashagan (Phase 1),TotalEnergies,TotalEnergies,KAZ,oil and gas production and transport,46.316,51.9261,16.81,,CLT_296
25494570,Tengiz,LUKOIL,LUKOIL,KAZ,oil and gas production and transport,46.0918,53.4322,5.0,,CLT_297
25494608,Uzen,KazMunaiGaz,KazMunaiGaz,KAZ,oil and gas production and transport,43.4175,52.8658,100.0,,CLT_298
25494667,Zhanazhol,PetroChina,PetroChina,KAZ,oil and gas production and transport,48.3175,57.4417,42.47,,CLT_299
25494336,Maylisu,Kyrgyzneftegaz,Kyrgyzneftegaz,KGZ,oil and gas production and transport,41.1106,72.3996,40.0,,CLT_300
25493972,Abduliyah,Kuwait Petroleum,Kuwait Petroleum,KWT,oil and gas production and transport,29.0973,47.6747,100.0,,CLT_301
25494130,Dharif,Kuwait Petroleum,Kuwait Petroleum,KWT,oil and gas production and transport,29.2145,47.7589,100.0,,CLT_302
25494196,Greater Burgan,Kuwait Petroleum,Kuwait Petroleum,KWT,oil and gas production and transport,28.9167,47.9333,100.0,,CLT_303
25494267,Khafji (excl-Ratawi)-KW,Kuwait Petroleum,Kuwait Petroleum,KWT,oil and gas production and transport,28.4711,48.9749,50.0,,CLT_304
25494349,Minagish,Kuwait Petroleum,Kuwait Petroleum,KWT,oil and gas production and transport,29.0241,47.5354,100.0,,CLT_305
25494389,North Kuwait,Kuwait Petroleum,Kuwait Petroleum,KWT,oil and gas production and transport,29.8767,47.6991,100.0,,CLT_306
25494453,Rahiya-Mutriba-Umm Niga (Jurassic fields- EPF 50),Kuwait Petroleum,Kuwait Petroleum,KWT,oil and gas production and transport,29.8876,47.4213,100.0,,CLT_307
25494458,Raudhatain,Kuwait Petroleum,Kuwait Petroleum,KWT,oil and gas production and transport,29.8778,47.7507,100.0,,CLT_308
25494459,Raudhatain East,Kuwait Petroleum,Kuwait Petroleum,KWT,oil and gas production and transport,29.9,47.73,100.00000000000004,,CLT_309
25494476,Sabriya,Kuwait Petroleum,Kuwait Petroleum,KWT,oil and gas production and transport,29.8354,47.8488,100.0,,CLT_310
25494599,Umm Gudair (excl-Umm Gudair South PNZ),Kuwait Petroleum,Kuwait Petroleum,KWT,oil and gas production and transport,28.8667,47.6667,100.0,,CLT_311
25494627,Wafra-KW,Kuwait Petroleum,Kuwait Petroleum,KWT,oil and gas production and transport,28.5505,47.9049,50.0,,CLT_312
25494031,Bahr Es Salan,Eni,Eni,LBY,oil and gas production and transport,33.7566,12.6781,100.0,,CLT_313
25494149,El Feel,Eni,Eni,LBY,oil and gas production and transport,26.0723,12.1949,8.0,,CLT_314
25494153,El Sharara,OMV,OMV,LBY,oil and gas production and transport,26.5833,12.2,15.0,,CLT_315
25494187,Gialo I (Main),TotalEnergies,TotalEnergies,LBY,oil and gas production and transport,28.68,21.4,20.41,,CLT_316
25494344,Messla,NOC,NOC,LBY,oil and gas production and transport,28.0313,22.0788,100.0,,CLT_317
25494381,Nasser,NOC,NOC,LBY,oil and gas production and transport,28.9089,19.8028,100.0,,CLT_318
25494500,Sarir,NOC,NOC,LBY,oil and gas production and transport,27.6431,22.5231,100.00000000000004,,CLT_319
25494629,Waha,TotalEnergies,TotalEnergies,LBY,oil and gas production and transport,28.3112,19.9354,20.41,,CLT_320
25494251,KSR,ONHYM,ONHYM,MAR,oil and gas production and transport,34.5184,-6.0354,25.12936605263092,,CLT_321
25494582,Tsimiroro,Madagascar Oil,Madagascar Oil,MDG,oil and gas production and transport,-18.5691,45.061,100.0,,CLT_322
25494026,Ayatsil,Pemex,Pemex,MEX,oil and gas production and transport,19.6254,-92.354,100.0,,CLT_323
25494081,Cantarell,Pemex,Pemex,MEX,oil and gas production and transport,19.4031,-92.062,100.0,,CLT_324
25494147,Ek-Balam,Pemex,Pemex,MEX,oil and gas production and transport,19.4958,-91.9389,100.0,,CLT_325
25494238,Ixachi,Pemex,Pemex,MEX,oil and gas production and transport,18.5491,-96.1249,100.0,,CLT_326
25494250,KMZ,Pemex,Pemex,MEX,oil and gas production and transport,19.5583,-92.2314,100.0,,CLT_327
25494354,Mizton,Eni,Eni,MEX,oil and gas production and transport,18.34,-93.86,65.00000000000001,,CLT_328
25494401,Onel,Pemex,Pemex,MEX,oil and gas production and transport,19.3317,-92.3979,100.0,,CLT_329
25494437,Poza,Pemex,Pemex,MEX,oil and gas production and transport,20.4922,-97.5227,100.0,,CLT_330
25494571,Teotleco,Pemex,Pemex,MEX,oil and gas production and transport,17.8967,-93.2441,100.0,,CLT_331
25494581,Tsimin,Pemex,Pemex,MEX,oil and gas production and transport,18.7139,-92.6909,100.00000000000004,,CLT_332
25494639,Xanab,Pemex,Pemex,MEX,oil and gas production and transport,18.5379,-93.3825,100.0,,CLT_333
25494642,Xux,Pemex,Pemex,MEX,oil and gas production and transport,18.6843,-92.7591,100.0,,CLT_334
25494653,Yaxche,Pemex,Pemex,MEX,oil and gas production and transport,18.5136,-93.2765,100.0,,CLT_335
25494519,Shwe Complex,ONGC,ONGC,MMR,oil and gas production and transport,19.7113,92.5471,17.0,,CLT_336
25494644,Yadana,Chevron,Chevron,MMR,oil and gas production and transport,15.1865,94.6377,41.1,,CLT_337
25494664,Zawtika,PTTEP,PTTEP,MMR,oil and gas production and transport,14.42,95.006,80.00000000000001,,CLT_338
25494415,Pande-Temane Complex,Sasol,Sasol,MOZ,oil and gas production and transport,-21.7373,35.0219,70.0,,CLT_339
25494006,Angsi,Petronas,Petroliam Nasional,MYS,oil and gas production and transport,5.2048,104.7523,50.0,,CLT_340
25494074,Bunga Orkid,Petronas,Petroliam Nasional,MYS,oil and gas production and transport,7.2068,103.8575,35.0,,CLT_341
25494206,Gumust-Kakap,PT Pertamina,Republic Of Indonesia,MYS,oil and gas production and transport,5.8117,114.423,,,CLT_342
25494220,Helang-Layang,Mitsubishi,Mitsubishi,MYS,oil and gas production and transport,4.7759,113.4506,4.719999999999999,,CLT_343
25494264,Kebabangan,Shell,Shell,MYS,oil and gas production and transport,6.4435,115.3847,30.0,,CLT_344
25494274,Kinabalu,Petronas,Petroliam Nasional,MYS,oil and gas production and transport,5.4325,114.7128,100.0,,CLT_345
25494319,Malikai,Shell,Shell,MYS,oil and gas production and transport,6.3303,115.1197,35.0,,CLT_346
25494376,NC3 Malaysia,Petronas,Petroliam Nasional,MYS,oil and gas production and transport,4.9145,113.0313,100.0,,CLT_347
25494559,Tapis,Petronas,Petroliam Nasional,MYS,oil and gas production and transport,5.5164,104.9947,22.0,,CLT_348
25494568,Telok,Petronas,Petroliam Nasional,MYS,oil and gas production and transport,5.6942,104.7786,50.000000000000014,,CLT_349
25494583,Tukau Timur,Shell,Shell,MYS,oil and gas production and transport,4.4242,113.8138,40.0,,CLT_350
25493983,AfiesereEriemu,Nigerian Petroleum Development,Nigerian Petroleum Development,NGA,oil and gas production and transport,5.39,6.11,55.00000000000001,,CLT_351
25493984,Agbami,Equinor,Equinor,NGA,oil and gas production and transport,3.4556,5.572,20.210000000000004,,CLT_352
25493989,Akpo-Egina (OML 130),TotalEnergies,TotalEnergies,NGA,oil and gas production and transport,3.1098,6.8328,24.000000000000004,,CLT_353
25494000,Amenam-Kpono,TotalEnergies,TotalEnergies,NGA,oil and gas production and transport,4.1301,7.5325,30.4,,CLT_354
25494060,Bonga Complex,TotalEnergies,TotalEnergies,NGA,oil and gas production and transport,4.5662,4.5933,12.5,,CLT_355
25494063,Bonny,NNPC,NNPC,NGA,oil and gas production and transport,4.4672,7.2042,100.0,,CLT_356
25494140,EA,TotalEnergies,TotalEnergies,NGA,oil and gas production and transport,4.8123,5.3619,10.0,,CLT_357
25494159,Erha,Shell,Shell,NGA,oil and gas production and transport,5.3747,4.3375,43.74999999999999,,CLT_358
25494184,Gbaran,TotalEnergies,TotalEnergies,NGA,oil and gas production and transport,5.0188,6.2992,10.0,,CLT_359
25494229,Ibewa,TotalEnergies,TotalEnergies,NGA,oil and gas production and transport,5.2361,6.6528,40.0,,CLT_360
25494278,Koma,TotalEnergies,TotalEnergies,NGA,oil and gas production and transport,4.75,7.407,10.0,,CLT_361
25494341,Meji,NNPC,NNPC,NGA,oil and gas production and transport,5.5251,5.0934,60.00000000000001,,CLT_362
25494394,Obagi,TotalEnergies,TotalEnergies,NGA,oil and gas production and transport,5.2415,6.6198,40.0,,CLT_363
25494395,Obiafu-Obrikom,Eni,Eni,NGA,oil and gas production and transport,5.408,6.613,20.000000000000004,,CLT_364
25494397,Ofon,TotalEnergies,TotalEnergies,NGA,oil and gas production and transport,4.1256,8.0938,40.0,,CLT_365
25494400,Okono-Okpoho,Eni,Eni,NGA,oil and gas production and transport,3.9767,7.2814,40.0,,CLT_366
25494408,Oso-NG,NNPC,NNPC,NGA,oil and gas production and transport,4.309,7.6502,60.0,,CLT_367
25494528,Soku,TotalEnergies,TotalEnergies,NGA,oil and gas production and transport,4.65,6.6,10.0,,CLT_368
25494530,Sonam,NNPC,NNPC,NGA,oil and gas production and transport,5.4986,4.8221,60.0,,CLT_369
25494585,Tunu-NG,TotalEnergies,TotalEnergies,NGA,oil and gas production and transport,4.8932,5.6238,10.0,,CLT_370
25494591,Ubit,NNPC,NNPC,NGA,oil and gas production and transport,4.23,8.1246,60.00000000000001,,CLT_371
25494592,Ughelli,Nigerian Petroleum Development,Nigerian Petroleum Development,NGA,oil and gas production and transport,5.5132,5.939,54.99999999999999,,CLT_372
25494603,Usari,NNPC,NNPC,NGA,oil and gas production and transport,4.2633,7.7988,60.0,,CLT_373
25494607,Utorogu,Nigerian Petroleum Development,Nigerian Petroleum Development,NGA,oil and gas production and transport,5.4298,5.8941,54.99999999999999,,CLT_374
25494663,Zarama,TotalEnergies,TotalEnergies,NGA,oil and gas production and transport,5.0859,6.4227,10.0,,CLT_375
25494201,Groningen,Shell,Shell,NLD,oil and gas production and transport,53.2882,6.8211,30.000000000000004,,CLT_376
25494383,Nes,Shell,Shell,NLD,oil and gas production and transport,53.4026,6.0574,20.0,,CLT_377
25494505,Schoonebeek,Shell,Shell,NLD,oil and gas production and transport,52.6666,6.8361,30.0,,CLT_378
25493970,Aasta Hansteen,OMV,OMV,NOR,oil and gas production and transport,67.0688,7.0101,15.0,,CLT_379
25493982,Aerfugl,PKN Orlen,PKN Orlen,NOR,oil and gas production and transport,65.6004,7.4386,11.92,,CLT_380
25494019,Asgard,TotalEnergies,TotalEnergies,NOR,oil and gas production and transport,65.0789,7.4898,7.81,,CLT_381
25494148,Ekofisk,TotalEnergies,TotalEnergies,NOR,oil and gas production and transport,56.548,3.217,39.9,,CLT_382
25494193,Grane,Petoro,Petoro,NOR,oil and gas production and transport,59.168,2.486,28.94,,CLT_383
25494204,Gullfaks,OMV,OMV,NOR,oil and gas production and transport,61.1797,2.2121,19.0,,CLT_384
25494205,Gullfaks Sor,OMV,OMV,NOR,oil and gas production and transport,61.049,2.019,19.000000000000004,,CLT_385
25494219,Heidrun,Petoro,Petoro,NOR,oil and gas production and transport,65.324,7.315,57.79,,CLT_386
25494248,Johan Sverdrup,TotalEnergies,TotalEnergies,NOR,oil and gas production and transport,58.8013,2.6035,8.44,,CLT_387
25494290,Kvitebjorn,TotalEnergies,TotalEnergies,NOR,oil and gas production and transport,61.0791,2.5063,5.0,,CLT_388
25494404,Ormen Lange,Shell,Shell,NOR,oil and gas production and transport,63.541,5.3375,17.810000000000002,,CLT_389
25494406,Oseberg Complex,TotalEnergies,TotalEnergies,NOR,oil and gas production and transport,60.5334,2.785,14.7,,CLT_390
25494523,Sleipner East,PKN Orlen,PKN Orlen,NOR,oil and gas production and transport,58.367,1.907,15.0,,CLT_391
25494525,Sleipner West,PKN Orlen,PKN Orlen,NOR,oil and gas production and transport,58.5044,1.711,15.0,,CLT_392
25494526,Snohvit,TotalEnergies,TotalEnergies,NOR,oil and gas production and transport,71.5999,21.1563,18.4,,CLT_393
25494527,Snorre,Petoro,Petoro,NOR,oil and gas production and transport,61.547,2.2732,30.000000000000004,,CLT_394
25494539,Statfjord-NO,Petoro,Petoro,NOR,oil and gas production and transport,61.2185,1.8414,10.943015274553089,,CLT_395
25494579,Troll,TotalEnergies,TotalEnergies,NOR,oil and gas production and transport,60.6797,3.6757,3.69,,CLT_396
25494589,Tyrihans,TotalEnergies,TotalEnergies,NOR,oil and gas production and transport,64.793,6.998,23.18,,CLT_397
25494621,Visund,Petoro,Petoro,NOR,oil and gas production and transport,61.3649,2.4327,30.000000000000004,,CLT_398
25494286,Kupe,Genesis Energy,Genesis Energy,NZL,oil and gas production and transport,-39.8564,174.1139,46.0,,CLT_399
25494308,Maari,OMV,OMV,NZL,oil and gas production and transport,-39.9694,173.3119,69.0,,CLT_400
25494433,Pohokura,OMV,OMV,NZL,oil and gas production and transport,-38.9488,174.2911,74.00000000000001,,CLT_401
25494056,Block 6,TotalEnergies,TotalEnergies,OMN,oil and gas production and transport,22.2135,56.2009,4.0,,CLT_402
25494057,Block 61,OQ,OQ,OMN,oil and gas production and transport,21.7713,56.4952,30.0,,CLT_403
25494262,"Kauther/Fakhr,",TotalEnergies,TotalEnergies,OMN,oil and gas production and transport,22.1032,57.3244,4.0,,CLT_404
25494316,Makarem,OQ,OQ,OMN,oil and gas production and transport,21.797,56.5648,30.000000000000004,,CLT_405
25494331,Marmul-Rahab-Thuleilat-Qaharir,TotalEnergies,TotalEnergies,OMN,oil and gas production and transport,18.1563,55.2709,4.0,,CLT_406
25494371,Mukhaizna,OQ,OQ,OMN,oil and gas production and transport,19.3528,56.4712,20.0,,CLT_407
25494384,Nimr,TotalEnergies,TotalEnergies,OMN,oil and gas production and transport,18.7128,55.9511,4.0,,CLT_408
25494480,Saih Nihayda,TotalEnergies,TotalEnergies,OMN,oil and gas production and transport,21.4233,56.9764,4.000000000000001,,CLT_409
25494481,Saih Rawl,TotalEnergies,TotalEnergies,OMN,oil and gas production and transport,21.3528,56.6971,4.0,,CLT_410
25494255,Kandhkot,Pakistan Petroleum,Pakistan Petroleum,PAK,oil and gas production and transport,28.237,69.2775,100.0,,CLT_411
25494285,Kunnar Pasakhi,GHPL,GHPL,PAK,oil and gas production and transport,25.4127,68.6429,22.5,,CLT_412
25494328,Mari,Mari Petroleum,Mari Petroleum,PAK,oil and gas production and transport,27.9432,69.7529,100.0,,CLT_413
25494369,Mubarak,United Energy,EP Corporate Group,PAK,oil and gas production and transport,28.5866,69.1842,0.0111136260143089,,CLT_414
25494079,Camisea,Repsol,Repsol,PER,oil and gas production and transport,-11.7806,-72.736,10.0,,CLT_415
25494086,Cashiriari,Repsol,Repsol,PER,oil and gas production and transport,-11.8842,-72.6905,10.0,,CLT_416
25494352,Mipaya-Pagoreni,Repsol,Repsol,PER,oil and gas production and transport,-11.6958,-72.9165,10.0,,CLT_417
25494318,Malampaya,Udenna,Udenna,PHL,oil and gas production and transport,11.6348,118.9027,45.00000000000001,,CLT_418
25494223,Hides,Marubeni,Marubeni,PNG,oil and gas production and transport,-5.9311,142.714,0.9699539128694608,,CLT_419
25494288,Kutubu,Marubeni,Marubeni,PNG,oil and gas production and transport,-6.4382,143.1935,1.0634573631045685,,CLT_420
25493993,Al Shaheen,TotalEnergies,TotalEnergies,QAT,oil and gas production and transport,26.5916,51.9571,30.000000000000004,,CLT_421
25494043,Barzan (Phase 1),ExxonMobil,ExxonMobil,QAT,oil and gas production and transport,26.2525,51.8078,7.000000000000001,,CLT_422
25494073,Bul Hanine,Qatar Energy,Qatar Energy,QAT,oil and gas production and transport,25.4401,52.7276,100.0,,CLT_423
25494134,Dukhan,Qatar Energy,Qatar Energy,QAT,oil and gas production and transport,25.2101,50.8251,100.0,,CLT_424
25494231,Idd El Shargi,Qatar Energy,Qatar Energy,QAT,oil and gas production and transport,25.4505,52.3798,100.0,,CLT_425
25494388,North Field,ExxonMobil,ExxonMobil,QAT,oil and gas production and transport,26.2525,51.8078,69.4032149990122,,CLT_426
25494456,Rasgas,ExxonMobil,ExxonMobil,QAT,oil and gas production and transport,26.2525,51.8078,30.0,,CLT_427
25494015,Arlanskoye,Rosneft,Rosneft,RUS,oil and gas production and transport,55.9267,54.3999,36.77921303386729,,CLT_428
25494020,Astrakhanskoye,Gazprom,Gazprom,RUS,oil and gas production and transport,46.7883,48.0831,100.0,,CLT_429
25494037,Balyk-Mamontovskoye,Rosneft,Rosneft,RUS,oil and gas production and transport,61.025,72.5861,100.0,,CLT_430
25494047,Beregovoye,LUKOIL,LUKOIL,RUS,oil and gas production and transport,65.8667,78.9667,0.0512867650090183,,CLT_431
25494064,Bovanenkovskoye,Gazprom,Gazprom,RUS,oil and gas production and transport,70.4,68.4,100.0,,CLT_432
25494069,Brystrinskoye,Rus-Oil,Rus-Oil,RUS,oil and gas production and transport,61.7807,72.0139,3.193422142880199,,CLT_433
25494094,Chatylkinskoye,Gazprom,Gazprom,RUS,oil and gas production and transport,63.4392,80.9886,95.68,,CLT_434
25494096,Chayandinskoye,Gazprom,Gazprom,RUS,oil and gas production and transport,60.7121,111.8423,99.70224604288175,,CLT_435
25494100,Chonskoye,Rosneft,Rosneft,RUS,oil and gas production and transport,60.0919,109.47,80.0,,CLT_436
25494125,Danilovskoye,LUKOIL,LUKOIL,RUS,oil and gas production and transport,60.4078,80.4824,24.17018501636395,,CLT_437
25494167,Fedorovskoye,Rosneft,Rosneft,RUS,oil and gas production and transport,61.6485,73.7265,0.0061211887360509,,CLT_438
25494169,Filanovskoye,LUKOIL,LUKOIL,RUS,oil and gas production and transport,44.994,48.5915,100.0,,CLT_439
25494202,Gubkinskoye,LUKOIL,LUKOIL,RUS,oil and gas production and transport,64.7299,76.6149,1.0130174609282143,,CLT_440
25494281,Komsomolskoye,Rosneft,Rosneft,RUS,oil and gas production and transport,64.4407,75.8026,19.590893149423845,,CLT_441
25494282,Kondinskoye,Rosneft,Rosneft,RUS,oil and gas production and transport,60.1551,69.2419,100.0,,CLT_442
25494284,Krasnoleninskoye,LUKOIL,LUKOIL,RUS,oil and gas production and transport,61.5815,66.5947,6.496862218324749,,CLT_443
25494289,Kuyumbinskoye,Rosneft,Rosneft,RUS,oil and gas production and transport,60.7689,96.9825,49.99999999999999,,CLT_444
25494307,Lyantorskoye,Surgutneftegas,Surgutneftegas,RUS,oil and gas production and transport,61.82,72.1702,100.0,,CLT_445
25494320,Malobalykskoye,Rosneft,Rosneft,RUS,oil and gas production and transport,60.4719,72.2374,93.10270257370226,,CLT_446
25494339,Medvezhye,Gazprom,Gazprom,RUS,oil and gas production and transport,66.23,73.83,100.0,,CLT_447
25494345,Messoyakhskoye,Rosneft,Rosneft,RUS,oil and gas production and transport,68.6044,80.1164,50.0,,CLT_448
25494364,Moskovtsev,Rosneft,Rosneft,RUS,oil and gas production and transport,60.0587,72.7346,100.0,,CLT_449
25494378,Nakhodkinskoye,LUKOIL,LUKOIL,RUS,oil and gas production and transport,68.02,78.17,100.0,,CLT_450
25494392,Novo-Yelkhovskoye,Tatneft,Tatneft,RUS,oil and gas production and transport,54.9161,52.048,100.0,,CLT_451
25494393,Novoportovskoye,Gazprom,Gazprom,RUS,oil and gas production and transport,67.8831,72.4314,95.68,,CLT_452
25494402,Orenburg East,Gazprom,Gazprom,RUS,oil and gas production and transport,51.63,54.28,95.68,,CLT_453
25494403,Orenburgskoye,Gazprom,Gazprom,RUS,oil and gas production and transport,51.63,54.28,100.0,,CLT_454
25494435,Povkhovskoye,LUKOIL,LUKOIL,RUS,oil and gas production and transport,62.3625,75.8078,100.0,,CLT_455
25494442,Priobskoye,Rosneft,Rosneft,RUS,oil and gas production and transport,63.2564,72.4615,75.44122756946244,,CLT_456
25494443,Prirazlomnoye,Rosneft,Rosneft,RUS,oil and gas production and transport,61.6568,69.5503,63.9965052395261,,CLT_457
25494445,Pyakyakhinskoye,LUKOIL,LUKOIL,RUS,oil and gas production and transport,67.8361,80.1314,100.0,,CLT_458
25494466,Rogozhnikovskoye,Surgutneftegas,Surgutneftegas,RUS,oil and gas production and transport,62.1851,67.2278,99.62522822920408,,CLT_459
25494467,Romashkinskoye,Tatneft,Tatneft,RUS,oil and gas production and transport,54.8336,52.81,95.48467783582116,,CLT_460
25494473,Russkinskoye,OMV,OMV,RUS,oil and gas production and transport,64.7576,78.0311,11.14602874599491,,CLT_461
25494483,Sakhalin 1,Marubeni,Marubeni,RUS,oil and gas production and transport,52.5815,143.4666,3.325648653687992,,CLT_462
25494484,Sakhalin 2,Mitsubishi,Mitsubishi,RUS,oil and gas production and transport,51.7663,143.6039,10.0,,CLT_463
25494486,Salymskoye Zapadnoye,Shell,Shell,RUS,oil and gas production and transport,60.3586,70.9331,49.99999999999999,,CLT_464
25494488,Samburgskoye,Gazprom,Gazprom,RUS,oil and gas production and transport,66.7912,77.3737,47.84000000000001,,CLT_465
25494490,Samotlor,Rosneft,Rosneft,RUS,oil and gas production and transport,61.16,77.0,100.0,,CLT_466
25494510,Severo-Labatyuganskoye,Surgutneftegas,Surgutneftegas,RUS,oil and gas production and transport,62.6525,70.8977,100.0,,CLT_467
25494522,Sladkovsko,OOO Sladkovsko-Zarechnoye,OOO Sladkovsko-Zarechnoye,RUS,oil and gas production and transport,51.6588,52.7876,100.0,,CLT_468
25494538,Srednebotuobinskoye,Bharat Petroleum,Bharat Petroleum,RUS,oil and gas production and transport,61.5847,112.9705,9.76,,CLT_469
25494547,Suzunskoye,Rosneft,Rosneft,RUS,oil and gas production and transport,68.3333,83.5,100.0,,CLT_470
25494553,Talakanskoye,Surgutneftegas,Surgutneftegas,RUS,oil and gas production and transport,59.9049,110.9812,100.00000000000004,,CLT_471
25494562,Tarkosalin-Termokarstovoye,Gazprom,Gazprom,RUS,oil and gas production and transport,65.4048,82.4953,61.04265607213256,,CLT_472
25494565,Tazovskoye Oil Rim,LUKOIL,LUKOIL,RUS,oil and gas production and transport,67.3875,78.9161,50.0,,CLT_473
25494602,Urengoyskoye,Rosneft,Rosneft,RUS,oil and gas production and transport,66.7501,76.4894,13.5670116960472,,CLT_474
25494604,Usinskoye,LUKOIL,LUKOIL,RUS,oil and gas production and transport,66.2159,57.2715,100.0,,CLT_475
25494605,Ust-Tegusskoye,Rosneft,Rosneft,RUS,oil and gas production and transport,58.7333,73.95,100.0,,CLT_476
25494610,Vankorskoye,Bharat Petroleum,Bharat Petroleum,RUS,oil and gas production and transport,67.8,83.5,7.799999999999999,,CLT_477
25494614,Vat-Yeganskoye,LUKOIL,LUKOIL,RUS,oil and gas production and transport,62.2043,75.1779,100.0,,CLT_478
25494618,Verkhne-Shapshinskoye,Russneft,Russneft,RUS,oil and gas production and transport,60.8178,70.3436,100.0,,CLT_479
25494619,Verkhnekolik-Yeganskoye,NNK,NNK,RUS,oil and gas production and transport,62.4206,80.1514,100.0,,CLT_480
25494624,Vostochno-Surgutskoye,Surgutneftegas,Surgutneftegas,RUS,oil and gas production and transport,61.3186,73.6571,100.0,,CLT_481
25494625,Vyngapurovskoye,Gazprom,Gazprom,RUS,oil and gas production and transport,62.8448,76.726,95.68,,CLT_482
25494626,Vyngapurovskoye gas field,Gazprom,Gazprom,RUS,oil and gas production and transport,62.8448,76.726,100.0,,CLT_483
25494646,Yamburgskoye,Gazprom,Gazprom,RUS,oil and gas production and transport,68.1667,76.0,100.0,,CLT_484
25494647,Yamsoveiskoye,Gazprom,Gazprom,RUS,oil and gas production and transport,65.3576,75.7868,100.0,,CLT_485
25494650,Yaraktinskoye,Irkutsk Oil,Irkutsk Oil,RUS,oil and gas production and transport,57.9683,106.8294,100.0,,CLT_486
25494651,Yaro-Yakhinskoye,Gazprom,Gazprom,RUS,oil and gas production and transport,66.225,78.7481,47.84,,CLT_487
25494652,Yarudeyskoye,Novatek,Novatek,RUS,oil and gas production and transport,66.0971,71.0923,51.0,,CLT_488
25494654,Yety-Purovskoye gas field,Gazprom,Gazprom,RUS,oil and gas production and transport,64.0,77.66,100.0,,CLT_489
25494656,Yubileynoye (Tyumen),Gazprom,Gazprom,RUS,oil and gas production and transport,65.99,75.95,100.0,,CLT_490
25494657,Yurkharovskoye,Novatek,Novatek,RUS,oil and gas production and transport,67.791,77.067,100.0,,CLT_491
25494660,Zapolyarnoye,Gazprom,Gazprom,RUS,oil and gas production and transport,67.0,79.5,100.0,,CLT_492
25494661,Zapovednoye,LUKOIL,LUKOIL,RUS,oil and gas production and transport,50.3272,45.6049,100.0,,CLT_493
25493973,Abqaiq,Saudi Aramco,Saudi Aramco,SAU,oil and gas production and transport,25.9722,49.7631,100.0,,CLT_494
25493977,Abu Sa'fah,Saudi Aramco,Saudi Aramco,SAU,oil and gas production and transport,26.79,50.4312,50.0,,CLT_495
25494012,Arabiyah,Saudi Aramco,Saudi Aramco,SAU,oil and gas production and transport,27.1198,49.9118,100.0,,CLT_496
25494050,Berri,Saudi Aramco,Saudi Aramco,SAU,oil and gas production and transport,27.1269,49.6106,100.0,,CLT_497
25494186,Ghawar,Saudi Aramco,Saudi Aramco,SAU,oil and gas production and transport,25.2147,49.2831,100.0,,CLT_498
25494212,Harmaliyah,Saudi Aramco,Saudi Aramco,SAU,oil and gas production and transport,24.4762,49.5205,100.0,,CLT_499
25494213,Hasbah,Saudi Aramco,Saudi Aramco,SAU,oil and gas production and transport,28.1489,49.9178,100.0,,CLT_500
25494260,Karan,Saudi Aramco,Saudi Aramco,SAU,oil and gas production and transport,27.6924,49.9797,100.0,,CLT_501
25494268,Khafji (excl-Ratawi)-SA,Kuwait Petroleum,Kuwait Petroleum,SAU,oil and gas production and transport,28.4711,48.9749,50.0,,CLT_502
25494271,Khurais,Saudi Aramco,Saudi Aramco,SAU,oil and gas production and transport,25.0096,48.134,100.0,,CLT_503
25494272,Khursaniyah,Saudi Aramco,Saudi Aramco,SAU,oil and gas production and transport,27.23,49.23,100.0,,CLT_504
25494294,Lawhah,Saudi Aramco,Saudi Aramco,SAU,oil and gas production and transport,28.2135,49.5558,100.0,,CLT_505
25494324,Manifa,Saudi Aramco,Saudi Aramco,SAU,oil and gas production and transport,27.7465,49.0941,100.00000000000004,,CLT_506
25494329,Marjan,Saudi Aramco,Saudi Aramco,SAU,oil and gas production and transport,28.4407,49.6362,100.0,,CLT_507
25494337,Mazalij,Saudi Aramco,Saudi Aramco,SAU,oil and gas production and transport,23.9218,48.2399,100.0,,CLT_508
25494448,Qatif,Saudi Aramco,Saudi Aramco,SAU,oil and gas production and transport,26.667,49.9015,100.0,,CLT_509
25494478,Safaniyah,Saudi Aramco,Saudi Aramco,SAU,oil and gas production and transport,28.2655,48.8902,100.0,,CLT_510
25494515,Shaybah,Saudi Aramco,Saudi Aramco,SAU,oil and gas production and transport,22.5629,54.0387,100.0,,CLT_511
25494628,Wafra-SA,Kuwait Petroleum,Kuwait Petroleum,SAU,oil and gas production and transport,28.5505,47.9049,50.0,,CLT_512
25494637,Wudayhi,Saudi Aramco,Saudi Aramco,SAU,oil and gas production and transport,23.868,48.5006,100.0,,CLT_513
25494671,Zuluf,Saudi Aramco,Saudi Aramco,SAU,oil and gas production and transport,28.3764,49.2396,100.0,,CLT_514
25494180,Gadiaga,Fortesa,Fortesa,SEN,oil and gas production and transport,14.9648,-17.0348,90.0,,CLT_515
25494273,Kikinda,NIS-Naftagas,NIS-Naftagas,SRB,oil and gas production and transport,45.856,20.4822,100.0,,CLT_516
25494616,Velebit,NIS-Naftagas,NIS-Naftagas,SRB,oil and gas production and transport,45.9757,19.8802,100.0,,CLT_517
25493980,Adar-Yale,Sinopec Group,Sinopec Group,SSD,oil and gas production and transport,10.0588,32.9611,6.0,,CLT_518
25494357,Moleeta,Sinopec Group,Sinopec Group,SSD,oil and gas production and transport,10.52,32.51,6.000000000000001,,CLT_519
25494414,Palogue,Sinopec Group,Sinopec Group,SSD,oil and gas production and transport,10.4337,32.4671,6.0,,CLT_520
25494446,Qamari,Sinopec Group,Sinopec Group,SSD,oil and gas production and transport,10.4815,32.6332,6.0,,CLT_521
25494575,Toma South,Petronas,Petroliam Nasional,SSD,oil and gas production and transport,9.8316,29.573,30.0,,CLT_522
25494601,Unity,Petronas,Petroliam Nasional,SSD,oil and gas production and transport,9.4699,29.6764,30.0,,CLT_523
25494556,Tambaredjo,Staatsolie Maatschappij Suriname,Staatsolie Maatschappij Suriname,SUR,oil and gas production and transport,5.8453,-55.5297,100.0,,CLT_524
25494059,Boabab,PetroChina,PetroChina,TCD,oil and gas production and transport,9.5899,20.386,50.0,,CLT_525
25494124,Daniela Complex,PetroChina,PetroChina,TCD,oil and gas production and transport,9.35,20.3,50.0,,CLT_526
25494280,Kome,Petronas,Petroliam Nasional,TCD,oil and gas production and transport,8.5428,16.7806,35.0,,CLT_527
25494455,Raphia,PetroChina,PetroChina,TCD,oil and gas production and transport,9.35,20.2,50.0,,CLT_528
25494061,Bongkot,PTTEP,PTTEP,THA,oil and gas production and transport,7.8208,102.4309,100.0,,CLT_529
25494157,Erawan,PTTEP,PTTEP,THA,oil and gas production and transport,9.1407,101.2957,60.0,,CLT_530
25494413,Pailin,Chevron,Chevron,THA,oil and gas production and transport,8.7126,101.2577,35.0,,CLT_531
25494520,Sirikit,PTTEP,PTTEP,THA,oil and gas production and transport,16.82,99.96,100.0,,CLT_532
25494003,Amudarya Basin,Turkmengas,Turkmengas,TKM,oil and gas production and transport,36.4737,61.6308,100.0,,CLT_533
25494138,Dzheitune,Dragon-ENOC,Dragon-ENOC,TKM,oil and gas production and transport,39.365,52.7578,95.0,,CLT_534
25494317,Makhtumkuli,Petronas,Petroliam Nasional,TKM,oil and gas production and transport,39.7424,52.4446,100.00000000000004,,CLT_535
25494487,Samandepe,PetroChina,PetroChina,TKM,oil and gas production and transport,38.3367,65.0616,50.000000000000014,,CLT_536
25494533,South Caspian Basin,Eni,Eni,TKM,oil and gas production and transport,39.4526,53.2178,0.0225419970559393,,CLT_537
25494044,Bayu-Undan,Eni,Eni,TLS,oil and gas production and transport,-11.0647,126.6579,10.98,,CLT_538
25494001,Amherstia,Repsol,Repsol,TTO,oil and gas production and transport,9.9511,-60.4542,30.0,,CLT_539
25494141,ECMA,Shell,Shell,TTO,oil and gas production and transport,10.2286,-60.2331,100.0,,CLT_540
25494195,Greater Angostura,Sinopec Group,Sinopec Group,TTO,oil and gas production and transport,10.6859,-60.5982,12.5,,CLT_541
25494258,Kapok,Repsol,Repsol,TTO,oil and gas production and transport,9.8974,-60.4618,30.0,,CLT_542
25494503,Savonette,Repsol,Repsol,TTO,oil and gas production and transport,10.0817,-60.2579,30.0,,CLT_543
25494040,Baraka,Eni,Eni,TUN,oil and gas production and transport,36.1231,10.78,49.0,,CLT_544
25494214,Hasdrubal,Shell,Shell,TUN,oil and gas production and transport,34.16,11.59,49.99999999999999,,CLT_545
25494353,Miskar,Shell,Shell,TUN,oil and gas production and transport,34.39,11.84,100.0,,CLT_546
25494355,Mnazi Bay,Maurel and Prom,Maurel and Prom,TZA,oil and gas production and transport,-10.3127,40.4058,48.06,,CLT_547
25494531,Songo Songo,TPDC,TPDC,TZA,oil and gas production and transport,-8.5003,39.4693,32.32008475277776,,CLT_548
25494132,Dolinske,Naftogaz Ukrainy,Naftogaz Ukrainy,UKR,oil and gas production and transport,48.9967,23.9864,100.0,,CLT_549
25494342,Melykhivske,Naftogaz Ukrainy,Naftogaz Ukrainy,UKR,oil and gas production and transport,49.5222,35.9611,100.0,,CLT_550
25494508,Semyrenkivske,DTEK,DTEK,UKR,oil and gas production and transport,49.6894,34.2225,100.0,,CLT_551
25494516,Shebelynske,Naftogaz Ukrainy,Naftogaz Ukrainy,UKR,oil and gas production and transport,49.2504,37.4404,99.58104126883792,,CLT_552
25494643,Yablunivske,Naftogaz Ukrainy,Naftogaz Ukrainy,UKR,oil and gas production and transport,50.1012,33.5571,99.7621361906104,,CLT_553
25493995,Alaska North Slope,ConocoPhillips,ConocoPhillips,USA,oil and gas production and transport,70.2597,-148.9247,49.67061480457017,,CLT_554
25493998,Aliso Canyon,Shell,Shell,USA,oil and gas production and transport,34.3228,-119.3145,52.0,,CLT_555
25494004,Anadarko,BP,BP,USA,oil and gas production and transport,36.2895,-99.8899,0.392686778207328,,CLT_556
25494010,Appomattox,Shell,Shell,USA,oil and gas production and transport,28.608,-87.9907,79.0,,CLT_557
25494013,Arkoma,BP,BP,USA,oil and gas production and transport,35.2478,-93.8313,0.7959668242969486,,CLT_558
25494014,Arkoma - coal bed methane,ExxonMobil,ExxonMobil,USA,oil and gas production and transport,34.6943,-94.7842,14.408382561996072,,CLT_559
25494022,Atlantis (GC743),BP,BP,USA,oil and gas production and transport,27.236,-90.0148,55.99999999999999,,CLT_560
25494025,Austin Chalk,Repsol,Repsol,USA,oil and gas production and transport,30.2094,-96.7124,1.7622906929648852,,CLT_561
25494034,Bakken-US,ConocoPhillips,ConocoPhillips,USA,oil and gas production and transport,47.9993,-102.9175,6.221829620040509,,CLT_562
25494041,Barnett,TotalEnergies,TotalEnergies,USA,oil and gas production and transport,32.8074,-97.474,12.600320250935097,,CLT_563
25494106,Coalinga,Shell,Shell,USA,oil and gas production and transport,36.2174,-120.3586,40.180752514909706,,CLT_564
25494109,Cook Inlet,Chugach Electric Association,Chugach Electric Association,USA,oil and gas production and transport,60.7752,-151.1584,2.148095449454728,,CLT_565
25494118,Cymric,Shell,Shell,USA,oil and gas production and transport,35.395,-119.7467,14.455612650697963,,CLT_566
25494129,Denver Julesburg,Occidental Petroleum,Occidental Petroleum,USA,oil and gas production and transport,40.4295,-104.4952,23.397758354574982,,CLT_567
25494142,Eagle Ford - black oil,Repsol,Repsol,USA,oil and gas production and transport,29.0926,-98.1303,0.7105584668206084,,CLT_568
25494143,Eagle Ford - condensate,BP,BP,USA,oil and gas production and transport,28.7924,-98.2072,8.995891136610974,,CLT_569
25494144,Eagle Ford - dry gas,Tokyo Gas,Tokyo Gas,USA,oil and gas production and transport,28.044,-99.6259,0.7781749252474781,,CLT_570
25494145,Eagle Ford - volatile oil,Tokyo Gas,Tokyo Gas,USA,oil and gas production and transport,28.5234,-98.5914,0.0507099094778744,,CLT_571
25494146,East Texas,Osaka Gas,Osaka Gas,USA,oil and gas production and transport,32.2172,-93.399,4.059121388227553,,CLT_572
25494156,Elk Hills,California Resources,California Resources,USA,oil and gas production and transport,35.16,-119.33,100.0,,CLT_573
25494194,Great White (AC857),Shell,Shell,USA,oil and gas production and transport,26.129,-94.8979,33.34,,CLT_574
25494199,Green River,Dominion Energy,Dominion Energy,USA,oil and gas production and transport,41.7721,-110.072,3.6818640718150246,,CLT_575
25494203,Gulf of Mexico Shallow Shelf,Eni,Eni,USA,oil and gas production and transport,29.0973,-90.7059,0.033705808463146,,CLT_576
25494217,Haynesville,Osaka Gas,Osaka Gas,USA,oil and gas production and transport,32.1996,-93.8272,2.812552688281725,,CLT_577
25494227,Huntington Beach,California Resources,California Resources,USA,oil and gas production and transport,33.68,-118.03,100.00000000000004,,CLT_578
25494265,Kern River,Chevron,Chevron,USA,oil and gas production and transport,35.5,-119.0,100.0,,CLT_579
25494303,Long Beach,Signal Hill Petroleum,Signal Hill Petroleum,USA,oil and gas production and transport,33.8,-118.17,100.0,,CLT_580
25494305,Lost Hills,Shell,Shell,USA,oil and gas production and transport,35.6095,-119.7215,24.66525437542674,,CLT_581
25494310,Mad Dog ,BP,BP,USA,oil and gas production and transport,27.1885,-90.2685,60.50000000000001,,CLT_582
25494326,Marcellus,Repsol,Repsol,USA,oil and gas production and transport,40.6895,-78.3916,1.8537809579284428,,CLT_583
25494332,Mars,Shell,Shell,USA,oil and gas production and transport,28.1697,-89.223,71.5,,CLT_584
25494338,McKittrick,Shell,Shell,USA,oil and gas production and transport,35.7676,-119.6919,52.000000000000014,,CLT_585
25494348,Midway-Sunset,Shell,Shell,USA,oil and gas production and transport,35.1193,-119.4344,17.16582330060344,,CLT_586
25494387,North Belridge,Shell,Shell,USA,oil and gas production and transport,35.7676,-119.6919,51.99999999999999,,CLT_587
25494409,Other Appalachia,Diversified Energy,Diversified Energy,USA,oil and gas production and transport,40.0758,-80.6178,17.672630735773918,,CLT_588
25494410,Other Appalachia - coal bed methane,Diversified Energy,Diversified Energy,USA,oil and gas production and transport,37.1493,-82.0132,13.454186074109009,,CLT_589
25494427,Permian NM,Occidental Petroleum,Occidental Petroleum,USA,oil and gas production and transport,32.4312,-103.8695,4.325719877548455,,CLT_590
25494428,Permian TX,Aga Khan Fund for Economic Development,Aga Khan Fund for Economic Development,USA,oil and gas production and transport,31.8759,-102.1841,4.881365452450067,,CLT_591
25494430,Placerita,Berry,Berry,USA,oil and gas production and transport,34.388,-118.493,100.00000000000004,,CLT_592
25494434,Poso Creek,Berry,Berry,USA,oil and gas production and transport,35.588,-118.709,100.0,,CLT_593
25494436,Powder River,Sinopec Group,Sinopec Group,USA,oil and gas production and transport,43.6866,-105.7072,0.5623563772082376,,CLT_594
25494491,San Ardo,Shell,Shell,USA,oil and gas production and transport,35.9649,-120.8791,32.64700833927138,,CLT_595
25494492,San Juan,ExxonMobil,ExxonMobil,USA,oil and gas production and transport,36.5191,-107.5783,0.084410517760081,,CLT_596
25494493,San Juan - coal bed methane,Chevron,Chevron,USA,oil and gas production and transport,37.1634,-107.6963,0.0058299151334869,,CLT_597
25494532,South Belridge,Shell,Shell,USA,oil and gas production and transport,35.5,-119.5,48.715268658885854,,CLT_598
25494551,Tahiti (GC640),TotalEnergies,TotalEnergies,USA,oil and gas production and transport,27.3346,-90.7437,17.0,,CLT_599
25494572,Thunderhorse,BP,BP,USA,oil and gas production and transport,28.2047,-88.5303,75.0,,CLT_600
25494593,Uinta,Occidental Petroleum,Occidental Petroleum,USA,oil and gas production and transport,39.7042,-108.878,0.3140130614580183,,CLT_601
25494594,Uinta - coal bed methane,ConocoPhillips,ConocoPhillips,USA,oil and gas production and transport,39.1065,-109.4778,1.7765029590090249,,CLT_602
25494606,Utica,Equinor,Equinor,USA,oil and gas production and transport,40.0792,-80.9286,1.715159695749127,,CLT_603
25494617,Ventura,Shell,Shell,USA,oil and gas production and transport,34.3382,-118.8214,21.61655640713056,,CLT_604
25494635,Wilmington,California Resources,California Resources,USA,oil and gas production and transport,33.7509,-118.1656,93.7270990383273,,CLT_605
25494072,Bukhara-Khiva,LUKOIL,LUKOIL,UZB,oil and gas production and transport,38.6909,65.5145,0.0074458507408388,,CLT_606
25494256,Kandym-Khauzsk,LUKOIL,LUKOIL,UZB,oil and gas production and transport,40.2667,63.5833,90.0,,CLT_607
25494665,Zevardi-Alan,Uzbekneftegaz,Uzbekneftegaz,UZB,oil and gas production and transport,38.8356,64.9567,100.0,,CLT_608
25494419,Pato Este (East),PDVSA,PDVSA,VEN,oil and gas production and transport,9.4937,-64.088,100.0,,CLT_609
25494426,Perla,Eni,Eni,VEN,oil and gas production and transport,11.9573,-70.5699,44.51833301563319,,CLT_610
25494497,Santa Barbara Complex,Repsol,Repsol,VEN,oil and gas production and transport,9.6664,-63.5282,2.233789607045965,,CLT_611
25494498,Santa Rosa,PDVSA,PDVSA,VEN,oil and gas production and transport,9.4779,-64.4024,100.0,,CLT_612
25494030,Bach Ho-Rong,LG International,LG International,VNM,oil and gas production and transport,9.4013,108.0199,1.450764566072689,,CLT_613
25494540,Su Tu Complex,Perenco,Perenco,VNM,oil and gas production and transport,10.4962,108.395,23.250000000000004,,CLT_614
25494567,Te Giac Trang,PetroVietnam,PetroVietnam,VNM,oil and gas production and transport,9.9203,107.9323,41.0,,CLT_615
25494365,Mossel Bay,PetroSA,PetroSA,ZAF,oil and gas production and transport,-34.8943,22.0732,100.0,,CLT_616
3162256,Dahna Toor Coal Mine,North Coal Enterprise (NCE),North Coal Enterprise (NCE),AFG,coal mining,35.70499225,67.31219552,100.0,,CLT_617
3162257,Garmak Project Coal Mine,Khoshak Brothers,Khoshak Brothers,AFG,coal mining,35.733,67.308,100.0,,CLT_618
14855,Shadashak Coal Mine,North Coal Enterprise (NCE),North Coal Enterprise (NCE),AFG,coal mining,35.863255,67.596674,100.0,,CLT_619
3162259,Tala Wa Barfak Coal Mine,North Coal Enterprise (NCE),North Coal Enterprise (NCE),AFG,coal mining,35.33194,68.12,100.0,,CLT_620
3162260,Valius Coal Mine,unknown,unknown,ALB,coal mining,41.39151824,19.73642639,100.0,,CLT_621
14856,Ro Turbio Coal Mine,Yacimientos Carbonferos de Ro Turbio,Yacimientos Carbonferos de Ro Turbio,ARG,coal mining,-51.538363,-72.324353,100.0,,CLT_622
14857,Airly Coal Mine,Centennial Coal Company,Banpu,AUS,coal mining,-33.1130709,150.0149367,100.0,,CLT_623
14858,Appin Coal Mine,Illawarra Coal,South32,AUS,coal mining,-34.211194,150.792736,100.0,,CLT_624
14859,Aquila Coal Mine,Capcoal,Mitsui & Co,AUS,coal mining,-22.9816055,148.5373229,30.0,,CLT_625
14860,Ashton Coal Mine,Yancoal Australia,Yancoal Australia,AUS,coal mining,-32.468942,151.078493,100.0,,CLT_626
14861,Baralaba Coal Mine,Baralaba Coal,AMCI Group,AUS,coal mining,-24.13680401,149.7936125,100.0,,CLT_627
14862,Bengalla Coal Mine,Taiwan Power,Taiwan Power,AUS,coal mining,-32.268076,150.84,20.0,,CLT_628
14863,Blackwater Coal Mine,BHP Billiton Mitsubishi Alliance,BHP Group,AUS,coal mining,-23.685585,148.807361,50.0,,CLT_629
14864,Blackwood Coal Mine,Cornwall Coal,Cement Australia,AUS,coal mining,-41.559798,148.130942,100.0,,CLT_630
14865,Blair Athol Coal Mine,Orion Mining,TerraCom,AUS,coal mining,-22.703221,147.54353,100.0,,CLT_631
14866,Bloomfield Coal Mine,Bloomfield Collieries,Bloomfield Group,AUS,coal mining,-32.7928986,151.5841947,100.0,,CLT_632
16648,Bluff Coal Mine,Bowen Coking Coal,Bowen Coking Coal,AUS,coal mining,-23.58974663,149.0786443,100.0,,CLT_633
14867,Boggabri Coal Mine,Chugoku Electric Power,Chugoku Electric Power,AUS,coal mining,-30.6116182,150.1550389,10.0,,CLT_634
14868,Broadmeadow Coal Mine,BM Alliance Coal Operations,Mitsubishi,AUS,coal mining,-21.8025693,147.98,50.0,,CLT_635
14869,Bulga Coal Mine,Nippon Steel Australia,Nippon Steel,AUS,coal mining,-32.6795434,151.1000279,87.5,,CLT_636
16649,Byerwen Coal Mine,Byerwen Coal,JFE Holdings,AUS,coal mining,-21.242828,147.835392,15.0,,CLT_637
14870,Callide Coal Mine,Batchfire Resources,Batchfire Resources,AUS,coal mining,-24.310921,150.622173,100.0,,CLT_638
14871,Cameby Downs Coal Mine,Syntech Resources,Shandong Energy Group,AUS,coal mining,-26.6181915,150.3548193,100.0,,CLT_639
3162277,CapCoal Mine Complex,Capcoal,Mitsui & Co,AUS,coal mining,-22.990997,148.580506,30.0,,CLT_640
14872,Carborough Downs Coal Mine,Fitzroy Australia Resources,ITOCHU,AUS,coal mining,-21.9502,148.2094,50.0,,CLT_641
16768,Carmichael Coal Project,Adani Mining,Adani Enterprises,AUS,coal mining,-22.073611,146.329722,100.0,,CLT_642
14873,Caval Ridge Coal Mine,BHP Billiton Mitsubishi Alliance,BHP Group,AUS,coal mining,-22.1056069,148.0475444,50.0,,CLT_643
14874,Chain Valley Coal Mine,Great Southern Energy,Sev.en Global Investments,AUS,coal mining,-33.163056,151.549665,100.0,,CLT_644
14875,Clarence Colliery,Centennial Coal - Clarence Joint Venture,SK Energy,AUS,coal mining,-33.4597,150.2479,15.0,,CLT_645
14876,Clermont Coal Mine,J-POWER,J-POWER,AUS,coal mining,-22.7201075,147.6195648,22.0,,CLT_646
14877,Collinsville Coal Mine,NC Coal Company,Glencore,AUS,coal mining,-20.5567302,147.8148229,100.0,,CLT_647
14878,Commodore Coal Mine,InterGen,InterGen,AUS,coal mining,-27.9343501,151.2554422,100.0,,CLT_648
14879,Cook Colliery,QCoal,QCoal,AUS,coal mining,-23.7159074,148.8893157,100.0,,CLT_649
14880,Coppabella Coal Mine,Marubeni,Marubeni,AUS,coal mining,-21.844554,148.427187,7.000000000000001,,CLT_650
3162287,Cows Coal Mine,QCoal,QCoal,AUS,coal mining,-20.63668673,147.85009,100.0,,CLT_651
14881,Cullenswood Coal Mine,Cement Australia,Cement Australia,AUS,coal mining,-41.6125381,148.1254475,100.0,,CLT_652
14882,Curragh Coal Mine,Coronado Global Resources,Coronado Global Resources,AUS,coal mining,-23.493219,148.842723,100.0,,CLT_653
14883,Dartbrook Coal Mine,Australian Pacific Coal,Australian Pacific Coal,AUS,coal mining,-32.1929124,150.894282,100.0,,CLT_654
14884,Daunia Coal Mine,BHP Billiton Mitsubishi Alliance,BHP Group,AUS,coal mining,-22.0410919,148.2702015,50.0,,CLT_655
14885,Dawson Complex,Dawson Joint Venture,Mitsui & Co,AUS,coal mining,-24.6168211,150.0504833,49.0,,CLT_656
14886,Dendrobium Coal Mine,South32,South32,AUS,coal mining,-34.419776,150.826135,100.0,,CLT_657
14887,Drake Coal Mine,QCoal,QCoal,AUS,coal mining,-20.705189,147.812727,100.0,,CLT_658
14888,Ensham Coal Mine,Bowen Investment (Australia),LX International,AUS,coal mining,-23.454464,148.497455,15.0,,CLT_659
14889,Foxleigh Coal Mine,Nippon Steel Australia,Nippon Steel,AUS,coal mining,-22.997778,148.803889,10.0,,CLT_660
3162297,Glendell Coal Mine,Glendell Tenements,Glencore,AUS,coal mining,-32.45121527,151.0783194,100.0,,CLT_661
14890,Goonyella-Riverside Coal Mine,BHP Billiton Mitsubishi Alliance,BHP Group,AUS,coal mining,-21.792321,147.962045,50.0,,CLT_662
14891,Gregory Crinum Coal Mines,Sojitz Blue,Sojitz,AUS,coal mining,-23.1491384,148.3875874,100.0,,CLT_663
16516,Grosvenor Coal Mine,Grosvenor,Nippon Steel,AUS,coal mining,-21.97420531,148.0106197,5.0,,CLT_664
14892,Hail Creek Coal Mine,Marubeni,Marubeni,AUS,coal mining,-21.484811,148.37,12.0,,CLT_665
14893,Hunter Valley North Coal Mine,Yancoal Australia,Yancoal Australia,AUS,coal mining,-32.4657844,150.9734981,51.0,,CLT_666
14894,Hunter Valley South Coal Mine,Yancoal Australia,Yancoal Australia,AUS,coal mining,-32.5245107,150.9819012,51.0,,CLT_667
3162303,Isaac Plains East Coal Mine,Stanmore Resources,Stanmore Resources,AUS,coal mining,-21.9718375,148.1132931,100.0,,CLT_668
14895,Jax Coal Mine,QCoal,QCoal,AUS,coal mining,-20.713736,147.860166,100.0,,CLT_669
14896,Jellinbah Coal Mine,Marubeni Resources Development,Marubeni,AUS,coal mining,-23.406874,148.950644,15.0,,CLT_670
14897,Kestrel Coal Mine,Kestrel Coal Resources,EMR Capital,AUS,coal mining,-23.236333,148.3583273,41.6,,CLT_671
14898,Kogan Creek Coal Mine,CS Energy,CS Energy,AUS,coal mining,-26.9384276,150.7743816,100.0,,CLT_672
14899,Lake Vermont Coal Mine,Jellinbah Group,Jellinbah Group,AUS,coal mining,-22.4611726,148.4056045,100.0,,CLT_673
14900,Liddell Coal Mine,Glencore Australia Holdings,Glencore,AUS,coal mining,-32.40838,151.031944,67.5,,CLT_674
14901,Loy Yang Coal Mine,AGL Loy Yang,AGL Energy,AUS,coal mining,-38.2347,146.564,99.9925,,CLT_675
14902,Mandalong Coal Mine,Centennial Mandalong,Banpu,AUS,coal mining,-33.119111,151.461844,100.0,,CLT_676
14903,Mangoola Coal Mine,Mangoola Coal Operations,Glencore,AUS,coal mining,-32.294922,150.706712,100.0,,CLT_677
3162313,Mannering Colliery,Delta Coal,Sev.en Global Investments,AUS,coal mining,-33.177227,151.542804,100.0,,CLT_678
16470,Maules Creek Coal Mine,Maules Creek Joint Venture,J-POWER,AUS,coal mining,-30.562606,150.11498,10.0,,CLT_679
14904,Meandu Coal Mine,TEC Coal,Stanwell,AUS,coal mining,-26.813543,151.911523,100.0,,CLT_680
3162315,Metropolitan Coal Mine,Metropolitan Collieries,Peabody Energy,AUS,coal mining,-34.184912,150.996569,100.0,,CLT_681
14905,Middlemount Coal Mine,Yancoal Australia,Yancoal Australia,AUS,coal mining,-22.848131,148.631626,50.0,,CLT_682
14906,Millenium Coal Mine,MetRes,Stanmore Resources,AUS,coal mining,-22.029079,148.259967,50.0,,CLT_683
14907,Moolarben Coal Mine,other,other,AUS,coal mining,-32.2828165,149.7591596,5.0,,CLT_684
14908,Moorvale Coal Mine,Marubeni,Marubeni,AUS,coal mining,-21.971718,148.372197,7.000000000000001,,CLT_685
14909,Moranbah North Coal Mine,Moranbah North,Mitsui & Co,AUS,coal mining,-21.871331,147.956742,4.74,,CLT_686
14910,Mount Arthur Coal Mine,BHP,BHP,AUS,coal mining,-32.337022,150.856144,100.0,,CLT_687
16608,Mount Pleasant Coal Mine,Integrated Energy Services,Integrated Energy Services,AUS,coal mining,-32.25591661,150.8499847,100.0,,CLT_688
14911,Mt Owen Coal Mine,Mt Owen,Glencore,AUS,coal mining,-32.4066392,151.085603,100.0,,CLT_689
14913,Myuna Coal Mine,Centennial Myuna,Banpu,AUS,coal mining,-33.060111,151.568738,100.0,,CLT_690
14914,Narrabri Coal Mine,Narrabri Coal Joint Venture,J-POWER,AUS,coal mining,-30.519437,149.903821,7.5,,CLT_691
14915,Newlands Coal Mine,Newlands Coal,Glencore,AUS,coal mining,-21.201424,147.887969,100.0,,CLT_692
14916,Oaky Creek Coal Mine,Glencore,Glencore,AUS,coal mining,-23.072256,148.483994,100.0,,CLT_693
14917,Peak Downs Coal Mine,BHP Billiton Mitsubishi Alliance,BHP Group,AUS,coal mining,-22.2548999,148.1796569,50.0,,CLT_694
14918,Poitrel Coal Mine,Stanmore SMC,Stanmore Resources,AUS,coal mining,-22.06650421,148.2551254,100.0,,CLT_695
14919,Premier Coal Mine,Yancoal Australia,Yancoal Australia,AUS,coal mining,-33.391728,116.286509,100.0,,CLT_696
14920,Ravensworth Coal Mine,ITOCHU,ITOCHU,AUS,coal mining,-32.4426478,151.0063967,10.0,,CLT_697
14921,Rix Creek Coal Mine,Bloomfield Group,Bloomfield Group,AUS,coal mining,-32.52393559,151.1208768,100.0,,CLT_698
14922,Rolleston Coal Mine,Rolleston Coal Holdings,Glencore,AUS,coal mining,-24.456609,148.404902,,,CLT_699
14923,Saraji Coal Mine,BHP Billiton Mitsubishi Alliance,BHP Group,AUS,coal mining,-22.371371,148.299848,50.0,,CLT_700
14924,Sonoma Coal Mine,QCoal,QCoal,AUS,coal mining,-20.62,147.86,100.0,,CLT_701
14925,South Walker Creek Coal Mine,Stanmore SMC,Stanmore Resources,AUS,coal mining,-21.753393,148.443289,100.0,,CLT_702
14926,Stratford Complex,Yanzhou Coal Mining,Shandong Energy Group,AUS,coal mining,-32.11607,151.974708,100.0,,CLT_703
14927,Tahmoor Coal Mine,SIMEC Mining Division,SIMEC Mining Division,AUS,coal mining,-34.2532732,150.5753104,50.0,,CLT_704
3162340,Tarrawonga Coal Mine,Tarrawonga Coal,Whitehaven Coal,AUS,coal mining,-30.639584,150.167277,100.0,,CLT_705
3162341,Ulan Complex Coal Mine,Ulan Coal Mines,Glencore,AUS,coal mining,-32.242539,149.749697,100.0,,CLT_706
16696,United Wambo Coal Mine,Glencore,Glencore,AUS,coal mining,-32.549369,150.984787,50.0,,CLT_707
3162342,Wambo Open Cut Mine,Wambo Coal,Peabody Energy,AUS,coal mining,-32.575524,151.006688,75.0,,CLT_708
14928,Wambo Underground Coal Mine,Wambo Coal,Peabody Energy,AUS,coal mining,-32.575524,151.006688,75.0,,CLT_709
14929,Werris Creek Coal Mine,Werris Creek Coal,Whitehaven Coal,AUS,coal mining,-31.40698,150.6395,100.0,,CLT_710
14930,Wilpinjong Coal Mine,Wilpinjong Coal,Peabody Energy,AUS,coal mining,-32.332,149.885,,,CLT_711
14931,Yallourn Coal Mine,EnergyAustralia,CLP Holdings,AUS,coal mining,-38.195064,146.360402,100.0,,CLT_712
3162347,Yarrabee Coal Mine,Yanzhou Coal Mining,Shandong Energy Group,AUS,coal mining,-23.317678,149.026371,100.0,,CLT_713
3162348,Barapukuria Coal Mine,Petrobangla,Petrobangla,BGD,coal mining,25.547269,88.96062,100.0,,CLT_714
3162368,Pernik Coal Mine,Otkrit Vagledobiv Mines EAD,Otkrit Vagledobiv Mines EAD,BGR,coal mining,42.6459,23.0572,100.0,,CLT_715
14939,Troyanavo 3 Coal Mine,Mini Maritsa Iztok,Bulgarian Energy Holding EAD,BGR,coal mining,42.1677,26.0376,100.0,,CLT_716
14940,Troyanovo 1 Coal Mine,Mini Maritsa Iztok,Bulgarian Energy Holding EAD,BGR,coal mining,42.1696,26.0393,100.0,,CLT_717
14941,Troyanovo-North Coal Mine,Mini Maritsa Iztok,Bulgarian Energy Holding EAD,BGR,coal mining,42.2737,26.0138,100.0,,CLT_718
3162372,Vagledobiv Bobov Dol Eood Coal Mines,Vagledobiv Bobov Dol EOOD,Vagledobiv Bobov Dol EOOD,BGR,coal mining,42.37848715,22.9973242,100.0,,CLT_719
14932,Banovici Coal Mine,other,other,BIH,coal mining,44.419483,18.453354,23.50000000000001,,CLT_720
14933,Bila Coal Mine,Elektroprivreda BiH,Elektroprivreda BiH,BIH,coal mining,44.22142,17.76726,100.0,,CLT_721
14934,Breza Coal Mine,Elektroprivreda BiH,Elektroprivreda BiH,BIH,coal mining,44.00217338,18.25553569,100.0,,CLT_722
14935,Djurdjevik Coal Mine,Elektroprivreda BiH,Elektroprivreda BiH,BIH,coal mining,44.4010855,18.6604759,100.0,,CLT_723
14936,Gacko Coal Mine,Elektroprivreda Republike Srpske,Elektroprivreda Republike Srpske,BIH,coal mining,43.17030389,18.5100955,100.0,,CLT_724
14937,Graanica Coal Mine,Elektroprivreda BiH,Elektroprivreda BiH,BIH,coal mining,43.99327693,17.51393576,100.0,,CLT_725
3162358,Haljinici Underground Coal Mine,Elektroprivreda BiH,Elektroprivreda BiH,BIH,coal mining,44.086592,18.175356,100.0,,CLT_726
3162359,Kreka Coal Mine,Elektroprivreda BiH,Elektroprivreda BiH,BIH,coal mining,44.52,18.606111,100.0,,CLT_727
3162360,Stanari Coal Mine,EFT Group,EFT Group,BIH,coal mining,44.75858419,17.80351636,100.0,,CLT_728
3162361,Ugljevik Coal Mine,Elektroprivreda Republike Srpske,Elektroprivreda Republike Srpske,BIH,coal mining,44.6655036,18.98854391,100.0,,CLT_729
3162362,Vrtliste Coal Mine,Elektroprivreda BiH,Elektroprivreda BiH,BIH,coal mining,44.14001979,18.09803137,100.0,,CLT_730
3162363,Zenica Coal Mine,Elektroprivreda BiH,Elektroprivreda BiH,BIH,coal mining,44.18877222,17.9328966,100.0,,CLT_731
3162365,Buti Leste Mine,Copelmi Minerao,Copelmi Minerao,BRA,coal mining,-30.102394,-51.938235,100.0,,CLT_732
3162366,Calombo Coal Mine,Copelmi Minerao,Copelmi Minerao,BRA,coal mining,-30.090131,-51.718974,100.0,,CLT_733
3162367,Cerro Coal Mine,Copelmi Minerao,Copelmi Minerao,BRA,coal mining,-30.390024,-53.0463,100.0,,CLT_734
16609,Seival Coal Mine,Copelmi Minerao,Copelmi Minerao,BRA,coal mining,-31.449159,-53.707527,100.0,,CLT_735
3162349,Habrang Coal Mine,State Mining (Bhutan),Druk Holding and Investment,BTN,coal mining,26.90306949,91.67961198,100.0,,CLT_736
3162350,Rishore Coal Mine,State Mining (Bhutan),Druk Holding and Investment,BTN,coal mining,26.85191894,91.45143986,100.0,,CLT_737
3162351,Tshophangma Coal Mine,State Mining (Bhutan),Druk Holding and Investment,BTN,coal mining,26.90279203,91.6801055,100.0,,CLT_738
16650,Masama Coal Mine,Mindanao Energy Systems,Vivant,BWA,coal mining,-24.527283,26.002621,40.0,,CLT_739
14938,Morupule Coal Mine,Minerals Development Company Botswana,Minerals Development Company Botswana,BWA,coal mining,-22.515389,27.024167,100.0,,CLT_740
14942,Brule Coal Mine,ERP Compliant Fuels,ERP Compliant Fuels,CAN,coal mining,55.38667,-121.82,100.0,,CLT_741
14943,Coal Valley Coal Mine,Prairie Mines and Royalty,Westmoreland Coal,CAN,coal mining,53.0518755,-116.7982727,100.0,,CLT_742
14944,Dodds Coal Mine,Dodds Coal Mining,Dodds Coal Mining,CAN,coal mining,53.21839986,-112.4311496,100.0,,CLT_743
16561,Donkin Coal Mine,Kameron Collieries ULC,The Cline Group,CAN,coal mining,46.1782285,-59.824882,100.0,,CLT_744
3162376,Elkview Coal Mine,Elkview Mine,Teck Resources,CAN,coal mining,49.742507,-114.823906,95.0,,CLT_745
14945,Estevan Coal Mine,Prairie Mines and Royalty,Westmoreland Coal,CAN,coal mining,49.092848,-102.886072,100.0,,CLT_746
14946,Fording River Operations,Teck Coal Partnership,Teck Resources,CAN,coal mining,50.19284,-114.86473,100.0,,CLT_747
3162381,Line Creek Coal Mine,Teck Coal Partnership,Teck Resources,CAN,coal mining,49.917,-114.776,100.0,,CLT_748
14948,Poplar River Coal Mine,Prairie Mines and Royalty,Westmoreland Coal,CAN,coal mining,49.2127113,-105.4714202,100.0,,CLT_749
3162383,Stellarton Coal Mine,Pioneer Coal,Nova Construction,CAN,coal mining,45.56475053,-62.67296499,100.0,,CLT_750
16651,Vista Coal Mine,Bighorn Mining,Bighorn Mining,CAN,coal mining,53.3961117,-117.6478052,100.0,,CLT_751
14949,Willow Creek Coal Mine,ERP Compliant Fuels,ERP Compliant Fuels,CAN,coal mining,55.6218806,-122.2174581,100.0,,CLT_752
14950,Wolverine Coal Mine,ERP Compliant Fuels,ERP Compliant Fuels,CAN,coal mining,55.0608535,-121.2530692,100.0,,CLT_753
14951,1890 Coal Mine,Xinjiang Coking Coal (Group),Xinjiang BAYI Iron & Steel,CHN,coal mining,43.008607,87.518762,100.0,,CLT_754
14952,1930 Coal Mine,Xinjiang Coking Coal (Group),Xinjiang BAYI Iron & Steel,CHN,coal mining,43.021644,87.45454,100.0,,CLT_755
14953,2130 Coal Mine,Xinjiang Coking Coal (Group),Xinjiang BAYI Iron & Steel,CHN,coal mining,43.022108,87.454015,100.0,,CLT_756
14954,A'erbasi No. 2 Well Coal Mine,Inner Mongolia Erdos Coal,Mitsui & Co,CHN,coal mining,39.392767,107.064987,20.16,,CLT_757
16610,Algmin Coal Mine,Xinjiang Kailing Investment,Xinjiang Kailing Investment,CHN,coal mining,42.247604,82.495625,100.0,,CLT_758
14955,Anda Coal Mine,Shanxi TongZhou Group Anda Coal Industry,Shanxi Tongzhou Coal & Coke Group SHARE,CHN,coal mining,36.745014,112.233794,100.0,,CLT_759
16771,Anhui Banji Coal Mine,China Coal Xinji Energy,China Coal Xinji Energy,CHN,coal mining,32.899945,116.228774,100.0,,CLT_760
14956,Anji Xinyuan Coal Mine,Shanxi Guxian Anji Xinyuan Coal Industry,Shanxi Guxian Anji Xinyuan Coal Industry,CHN,coal mining,36.419151,112.057556,100.0,,CLT_761
14957,Anjialing Open-Pit Mine,China Coal Pingshuo Group,China Coal Energy,CHN,coal mining,39.449488,112.360569,100.0,,CLT_762
16471,Anju Coal Mine,Jining MINING Industry Group,Jining Energy Development Group,CHN,coal mining,35.348195,116.534877,100.0,,CLT_763
14958,Anshan Coal Mine,Shaanxi Yongxin Mining,Fugu County State-owned Assets Operation,CHN,coal mining,39.264201,110.784527,40.0,,CLT_764
14959,Anshun Le'an Coal Mine,Shanxi Xiyang Le'an Coal Industry,other,CHN,coal mining,37.638337,113.660658,49.0,,CLT_765
14960,Anshun Sandu Coal Mine,Shanxi Xiyang Anshun Sandu Coal Industry,Xiyang Anshun Coal Industry,CHN,coal mining,37.484246,113.682682,51.0,,CLT_766
14961,Antai Coal Mine,Shanxi Hongsheng Antai Coal Industry,other,CHN,coal mining,37.589747,110.905741,2.0,,CLT_767
14962,Antaibao Surface Mine,China Coal Pingshuo Group,China Coal Energy,CHN,coal mining,39.474754,112.311939,100.0,,CLT_768
14963,Anxin Coal Mine,Shanxi Anze Anxin Coal Industry,other,CHN,coal mining,36.446988,112.106278,17.0,,CLT_769
14964,Aojiagou Xiliang Coal Mine,Zhungeer Shenshan Coal,other,CHN,coal mining,39.669495,110.307246,23.0,,CLT_770
16773,Baijialiang Coal Mine,Inner Mongolia Yitai Coal,Inner Mongolia Yitai Coal,CHN,coal mining,39.544637,110.234222,100.0,,CLT_771
14965,Baijigou Coal Mine,China ENERGY Group Ningxia Coal Industry,China Energy Investment,CHN,coal mining,39.115672,106.137228,51.0,,CLT_772
14967,Baiping Coal Mine,Zhengmei Group (Henan) Baiping Coal Industry,Zhengzhou Coal Industry & Electric Power,CHN,coal mining,34.354137,113.085152,100.0,,CLT_773
16562,Baishihu Surface Mine,Yiwu Guanghui Mining,other,CHN,coal mining,43.917059,94.670358,1.0,,CLT_774
14968,Baiyangling Coal Mine,Guotou Xiyang Energy,Ningbo Jianmao Industrial Development,CHN,coal mining,37.507157,113.623609,30.0,,CLT_775
16515,Baiyinhua No.1 Surface Mine,Inner Mongolia Pingxibaiyinhua Coal Industry,China Energy Investment,CHN,coal mining,44.786827,118.455621,100.0,,CLT_776
14970,Baiyinhua No.3 Surface Mine,Inner Mongolia Baiyinhua Mengdong Open Pit Coal,State Power Investment,CHN,coal mining,44.897826,118.615908,48.7175,,CLT_777
14971,Baiyunwusu Coal Mine,Inner Mongolia Vv Energy,other,CHN,coal mining,39.402765,106.953195,40.0,,CLT_778
14972,Baizhuang Coal Mine,Feicheng Baizhuang Coal Mine,Shandong Energy Group,CHN,coal mining,36.241169,116.613278,100.0,,CLT_779
14973,Baliancheng Coal Mine,Hunchun Mining (Group) Baliancheng Coal Industry,Jilin Provincial Coal Industry Group,CHN,coal mining,42.830196,130.287903,100.0,,CLT_780
14974,Balongtu Surface Mine,Inner Mongolia Huineng Coal Power Group Balongtu Coal,Inner Mongolia Huineng Coal & Electrical Group,CHN,coal mining,39.841549,110.115952,70.0,,CLT_781
14975,Banshi Coal Mine,Hunchun Mining (Group) Slate Coal,Jilin Provincial Coal Industry Group,CHN,coal mining,42.775282,130.316763,100.0,,CLT_782
16472,Bao'an Coal Mine,Shanxi Coal Transportation and Marketing Group Baoan Coal Industry,Shanxi State-Owned Capital Investment and Operation,CHN,coal mining,37.877325,113.353972,40.934340000000006,,CLT_783
14976,Bao'erhu Shugaobu Coal Mine,Xiwuzhumuqin Yilong Coal Industry,Xiwuzhumuqin Yilong Coal Industry,CHN,coal mining,45.250314,119.269262,100.0,,CLT_784
14854,Baode Coal Mine,China Shenhua Energy,China Shenhua Energy,CHN,coal mining,38.950871,111.089441,100.0,,CLT_785
14978,Baoli Coal Mine,Inner Mongolia Baoli Coal,Datang International Power Generation,CHN,coal mining,39.869613,110.296794,70.0,,CLT_786
14979,Baopingwan Coal Mine,Zhungeer Banner Gongjiatabaopingwan Coal,Inner Mongolia Huineng Coal & Electrical Group,CHN,coal mining,39.368693,110.479916,100.0,,CLT_787
3162416,Baoqing Chaoyang Surface Coal Mine,Luneng Baoqingmei Electrochemical Development,China Energy Investment,CHN,coal mining,46.271618,132.573834,90.0,,CLT_788
3162418,Bayangol Coal Mine,Inner Mongolia Huangtaolegai Coal,Shandong Energy Group,CHN,coal mining,38.742674,109.39955,60.0,,CLT_789
14982,Beizhiyu Coal Mine,Shanxi Changzhi Yangtouling Beizhiyu Coal Industry,Shanxi Changzhi Yangtouling Coal Industry,CHN,coal mining,35.984448,113.100708,51.0,,CLT_790
14983,Beizu Coal Mine,Shanxi Shanyin Beizu Coal Industry,other,CHN,coal mining,39.686861,112.634808,25.0,,CLT_791
16776,Beskuduk Coal Mine,Hami Hexiang Industry and Trade,other,CHN,coal mining,44.174995,91.739878,0.4387,,CLT_792
14984,Bide Coal Mine,Guizhou Bide Coal Industry,Agricultural Bank of China,CHN,coal mining,26.607655,105.155022,14.7785,,CLT_793
16517,Bide Tengqing Coal Mine,Guizhou Guineng Investment,Guizhou Guineng Investment,CHN,coal mining,26.559478,105.169551,100.0,,CLT_794
14985,Binhu Coal Mine,Zaozhuang MINING (GROUP),Shandong Energy Group,CHN,coal mining,35.073533,116.896454,86.31,,CLT_795
14986,Bofang Coal Mine,Shanxi Lanhua Sci-Tech Venture,Shanxi Lanhua Sci-Tech Venture,CHN,coal mining,35.843028,112.841872,100.0,,CLT_796
16653,Bojiang Haizi Coal Mine,Inner Mongolia Yinhong Energy Development,Huaihe Energy Holding Group,CHN,coal mining,39.875893,109.366516,41.45,,CLT_797
14987,Buertai Coal Mine,China Shenhua Energy,China Shenhua Energy,CHN,coal mining,39.495115,109.973302,100.0,,CLT_798
14988,Buliangou Coal Mine,Inner Mongolia Mengtaibuliangou Coal Industry,China Huadian Group,CHN,coal mining,40.012229,111.336127,39.78,,CLT_799
3162428,Chahasu Coal Mine,Guodian & Jiantou Inner Mongolia Energy Investment,GD POWER Development,CHN,coal mining,39.302564,109.965281,50.0,,CLT_800
14989,Chaigou Coal Mine,Shanxi Huairen Lianshun Xida Chaigou Coal Industry,other,CHN,coal mining,39.881266,112.993203,18.75,,CLT_801
14990,Chaili Coal Mine,Zaozhuang MINING (GROUP),Shandong Energy Group,CHN,coal mining,34.957955,117.026118,86.31,,CLT_802
14991,Chang'an Coal Mine,Shaanxi Xunyi County Xundong Coal Industry,Shaanxi Xunyi County Xundong Coal Industry,CHN,coal mining,35.111207,108.504427,100.0,,CLT_803
3162432,Changcheng No. 6 Coal Mine,Etuokeqian Banner Great Wall No.6 Mining,Shandong Energy Group,CHN,coal mining,38.299084,106.53429,57.99999999999999,,CLT_804
14992,Changchunxing Coal Mine,Shanxi Coal Import Export Group Zuoyun Changchun Xingmeiye,Shanxi Coal International Energy Group,CHN,coal mining,39.773688,112.677731,51.0,,CLT_805
14993,Changcun Coal Mine,Shanxi Luan Environmental EnergyDev,Shanxi Luan Environmental EnergyDev,CHN,coal mining,36.362666,112.975762,100.0,,CLT_806
14994,Changgou Coal Mine,Yangquan Coal Industry Group Changgou Coal Mine,Shanxi State-Owned Capital Investment and Operation,CHN,coal mining,37.425517,113.652876,60.3723116,,CLT_807
14995,Changji Tengda Coal Mine,Xinjiang Changji Heze Tengda Mining,other,CHN,coal mining,43.716851,86.863187,38.013801,,CLT_808
14996,Changping Coal Mine,Shanxi Changping Coal Industry,Shanxi State-Owned Capital Investment and Operation,CHN,coal mining,35.911636,112.844663,61.47765,,CLT_809
14997,Changtai Coal Mine,Shanxi Shouyang Luyang Changtai Coal Industry,Shanxi State-Owned Capital Investment and Operation,CHN,coal mining,37.999319,113.208205,48.6,,CLT_810
3162439,Changxin Coal Mine,Shanxi Majunyu Changxin Coal Industry,Shanxi Majunyu Coking,CHN,coal mining,36.839258,112.286279,51.0,,CLT_811
14998,Changxu Surface Mine,Zhungeer Changxu Coal,other,CHN,coal mining,39.458886,110.486821,1.0,,CLT_812
14999,Changzhi Changhong Coal Mine,Shanxi Changzhi Liansheng Changhong Coal Industry,other,CHN,coal mining,35.933266,113.000048,59.71,,CLT_813
15000,Changzhi Huangshan Coal Mine,Shanxi Coal Transportation and Marketing Group Huangshan Coal Industry,Shanxi State-Owned Capital Investment and Operation,CHN,coal mining,36.006116,113.149591,29.40354,,CLT_814
16780,Changzhi Xiahe Coal Mine,Shanxi Xiahe Coal Industry,Shanxi State-Owned Capital Investment and Operation,CHN,coal mining,36.726508,113.089919,1.4701769999999998,,CLT_815
15001,Changzhi Xinchao Coal Mine,Shanxi Xinchao Coal Industry,Beijing State-owned Capital Management Center,CHN,coal mining,36.955078,112.160137,44.1,,CLT_816
15002,Changzhi Xincun Coal Mine,Shanxi Xincun Coal Industry,Shanxi State-Owned Capital Investment and Operation,CHN,coal mining,36.901559,113.26208,29.40354,,CLT_817
15003,Changzhi Xinjian Coal Mine,Changzhi Xinjian Coal Industry,Changzhi Shangdang District State Owned Capital Investment,CHN,coal mining,35.919764,113.049909,19.21,,CLT_818
15004,Changzhi Xishan Coal Mine,Changzhi Xishan Coal Industry,other,CHN,coal mining,35.993235,113.070222,1.54,,CLT_819
15005,Changzhi Zhenxing Coal Mine,Changzhi County Zhenxing Coal Industry,Changzhi County Zhenxing Coal Industry,CHN,coal mining,35.891816,113.121427,100.0,,CLT_820
15006,Chaochuan Coal Mine No. 1 Well,Pingdingshan Tianan Coal Mining,Pingdingshan Tianan Coal Mining,CHN,coal mining,34.055418,112.89473,100.0,,CLT_821
15007,Chaohua Coal Mine,Zhengzhou Coal Industry & Electric Power,Zhengzhou Coal Industry & Electric Power,CHN,coal mining,34.449797,113.412928,100.0,,CLT_822
15008,Chaokai Surface Coal Mine,Shanxi Xinzhou Shenda Chaokai Coal Industry,other,CHN,coal mining,39.083024,112.33805,49.0,,CLT_823
15010,Cheji Coal Mine,Henan LONGYU ENERGY Resources,other,CHN,coal mining,33.927421,116.495822,5.65,,CLT_824
15011,Chengshan Coal Mine Shaft,Jixi Mining Group,Heilongjiang Longmay Mining Holding Group,CHN,coal mining,45.340283,131.015076,100.0,,CLT_825
15012,Chengzhuang Coal Mine,Jincheng Blue Flame Coal Industry,Jincheng Blue Flame Coal Industry,CHN,coal mining,35.612799,112.72638,100.0,,CLT_826
15013,Chenjiagou Coal Mine,Gansu Huating Coal Power,China Huaneng Group,CHN,coal mining,35.205077,106.6328,42.3409,,CLT_827
15014,Chenjiashan Coal Mine,Shaanxi Shanmei Tongchuan Mining Industry,Shaanxi Coal Industry,CHN,coal mining,35.156318,108.776034,100.0,,CLT_828
15015,Chensilou Coal Mine,Henan LONGYU ENERGY Resources,other,CHN,coal mining,34.010664,116.381305,5.65,,CLT_829
16697,Chicheng Coal Mine,Huating Mei Ye Group,China Huaneng Group,CHN,coal mining,35.17968,107.031589,49.0,,CLT_830
15016,China Coal Danshuigou Coal Mine,Shanxi Zhongmei Danshuigou Coal Industry,China National Coal Group,CHN,coal mining,39.421697,112.469082,100.0,,CLT_831
15017,China-Coal Tashan Coal Mine,Shanxi Guotou Yunfeng Energy Sources,Datong Yunfeng Asset Management,CHN,coal mining,39.950913,113.08686,5.0,,CLT_832
3162460,Chiyu Coal Mine,Shanxi Jindi Coal and Coke,China Huarong Asset Management,CHN,coal mining,37.447517,112.007683,5.92349999999999,,CLT_833
15018,Chong'an Sucun Coal Mine,Shanxi Lingchuan Chongan Sucun Coal Industry,other,CHN,coal mining,35.818498,113.111002,3.06,,CLT_834
15019,Chuancao Gedan Coal Mine,Jungar Qi Yunfei Mining Industry,other,CHN,coal mining,39.488626,111.361253,33.0,,CLT_835
15020,Chuanwo Coal Mine,Shanxi Shuguang Chuanwo Coal Industry,Shanxi ShuGuang Coal Coke Group,CHN,coal mining,35.758679,110.605126,100.0,,CLT_836
15021,Ciyaogou Coal Mine,Shanxi Hequ Jinshen Ciyaogou Coal Industry,China Energy Investment,CHN,coal mining,39.285723,111.306039,29.4,,CLT_837
