source_id,source_name,iso3_country,original_inventory_sector,lat,lon,geometry_ref,relationship,ultimate_parent_name,ultimate_parent_id,percent_interest_parent,company_name,company_id,percent_interest_company,interest_units,start_date,end_date,created_date,modified_date,percent_company_datasource,percent_parent_datasource
25487520,Amrun Mine,AUS,bauxite-mining,-12.947923,141.63187,trace_141.63187_-12.947923,owner,Rio Pinto,100001012591.0,100.0,Rio Pinto,100001012591,100,bauxite_reserves,2022-01-01 00:00:00,2022-12-31 00:00:00,2023-11-29 22:49:35.188142,,,{7061}
25487521,Andoom Mine,AUS,bauxite-mining,-12.5164,141.838998,trace_141.838998_-12.5164,owner,Rio Pinto,100001012591.0,100.0,Rio Pinto,100001012591,100,bauxite_reserves,2022-01-01 00:00:00,2022-12-31 00:00:00,2023-11-29 22:49:35.18824,,,{7061}
25487522,Bald Hill Mine,AUS,bauxite-mining,-41.895313,147.450575,trace_147.450575_-41.895313,owner,SMS Mining Services,100001012592.0,100.0,SMS Mining Services,100001012592,100,bauxite_reserves,2022-01-01 00:00:00,2022-12-31 00:00:00,2023-11-29 22:49:35.188286,,,"{7061,34386}"
25487523,Bauxite Hills Mine,AUS,bauxite-mining,-11.879198,142.007714,trace_142.007714_-11.879198,owner,Metro Mining,100001012593.0,100.0,Metro Mining,100001012593,100,bauxite_reserves,2022-01-01 00:00:00,2022-12-31 00:00:00,2023-11-29 22:49:35.18832,,,{7061}
25487524,Boddington Mine,AUS,bauxite-mining,-32.938488,116.453815,trace_116.453815_-32.938488,owner,South32,100001010133.0,100.0,South32,100001010133,100,bauxite_reserves,2022-01-01 00:00:00,2022-12-31 00:00:00,2023-11-29 22:49:35.188408,,,{7061}
25487525,Gove Mine,AUS,bauxite-mining,-12.292853,136.851272,trace_136.851272_-12.292853,owner,Rio Pinto,100001012591.0,100.0,Rio Pinto,100001012591,100,bauxite_reserves,2022-01-01 00:00:00,2022-12-31 00:00:00,2023-11-29 22:49:35.188442,,,{7061}
25487526,Hey Point Mine,AUS,bauxite-mining,-12.73671,141.886526,trace_141.886526_-12.73671,owner,BHP Group,100000000015.0,100.0,BHP Group,100000000015,100,bauxite_reserves,2022-01-01 00:00:00,2022-12-31 00:00:00,2023-11-29 22:49:35.188476,,,{7061}
25487527,Huntly Mine,AUS,bauxite-mining,-32.555975,116.166514,trace_116.166514_-32.555975,owner,Alcoa,100001000636.0,100.0,Alcoa,100001000636,100,bauxite_reserves,2022-01-01 00:00:00,2022-12-31 00:00:00,2023-11-29 22:49:35.188508,,,{7061}
25487528,Weipa Operation,AUS,bauxite-mining,-12.661226,141.955586,trace_141.955586_-12.661226,owner,Rio Pinto,100001012591.0,100.0,Rio Pinto,100001012591,100,bauxite_reserves,2022-01-01 00:00:00,2022-12-31 00:00:00,2023-11-29 22:49:35.188539,,,{7061}
25487529,Willowdale Mine,AUS,bauxite-mining,-32.843989,116.057893,trace_116.057893_-32.843989,owner,Alcoa,100001000636.0,100.0,Alcoa,100001000636,100,bauxite_reserves,2022-01-01 00:00:00,2022-12-31 00:00:00,2023-11-29 22:49:35.188575,,,{7061}
25487530,Milici Mine,BIH,bauxite-mining,44.074155,19.193549,trace_19.193549_44.074155,owner,Boksit ad Milici,100001012594.0,100.0,Boksit ad Milici,100001012594,100,bauxite_reserves,2022-01-01 00:00:00,2022-12-31 00:00:00,2023-11-29 22:49:35.18861,,,{7061}
25487531,Barro Alto Mine,BRA,bauxite-mining,-14.983944,-48.942344,trace_-48.942344_-14.983944,owner,Anglo American,100001000407.0,100.0,Anglo American,100001000407,100,bauxite_reserves,2022-01-01 00:00:00,2022-12-31 00:00:00,2023-11-29 22:49:35.188646,,,"{5830,7061}"
25487532,Bela Cruz Mine,BRA,bauxite-mining,-1.792772,-56.519289,trace_-56.519289_-1.792772,owner,Vale,100001000480.0,100.0,Vale,100001000480,100,bauxite_reserves,2022-01-01 00:00:00,2022-12-31 00:00:00,2023-11-29 22:49:35.188702,,,"{7061,34387,34388,34389,34390,34391,34392}"
25487533,Cipo Mine,BRA,bauxite-mining,-1.743756,-56.39429,trace_-56.39429_-1.743756,owner,Vale,100001000480.0,100.0,Vale,100001000480,100,bauxite_reserves,2022-01-01 00:00:00,2022-12-31 00:00:00,2023-11-29 22:49:35.18875,,,"{7061,34387,34388,34389,34390,34391,34392}"
25487534,Curimbaba Mine,BRA,bauxite-mining,-21.848265,-46.491602,trace_-46.491602_-21.848265,owner,Mineracao Curimbaba,100001012595.0,100.0,Mineracao Curimbaba,100001012595,100,bauxite_reserves,2022-01-01 00:00:00,2022-12-31 00:00:00,2023-11-29 22:49:35.18878,,,{7061}
25487535,Itamarati de Minas Mine,BRA,bauxite-mining,-21.445629,-42.879786,trace_-42.879786_-21.445629,owner,Companhia Brasileria De Aluminio,100001012596.0,100.0,Companhia Brasileria De Aluminio,100001012596,100,bauxite_reserves,2022-01-01 00:00:00,2022-12-31 00:00:00,2023-11-29 22:49:35.188818,,,{7061}
25487536,Juruti Mine,BRA,bauxite-mining,-2.494093336,-56.18198733,trace_-56.18198733_-2.494093336,owner,Alcoa,100001000636.0,100.0,Alcoa,100001000636,100,bauxite_reserves,2022-01-01 00:00:00,2022-12-31 00:00:00,2023-11-29 22:49:35.188855,,,{7061}
25487537,Mineracao Rio do Norte Operation,BRA,bauxite-mining,-1.709555,-56.415375,trace_-56.415375_-1.709555,owner,Vale,100001000480.0,100.0,Vale,100001000480,100,bauxite_reserves,2022-01-01 00:00:00,2022-12-31 00:00:00,2023-11-29 22:49:35.189214,,,"{7061,34387,34388,34389,34390,34391,34392}"
25487538,Mirai Mine,BRA,bauxite-mining,-21.059117,-42.570551,trace_-42.570551_-21.059117,owner,Vale,100001000480.0,100.0,Vale,100001000480,100,bauxite_reserves,2022-01-01 00:00:00,2022-12-31 00:00:00,2023-11-29 22:49:35.189266,,,"{7061,34387,34388,34389,34390,34391,34392}"
25487539,Monte Branco Mine,BRA,bauxite-mining,-1.675046,-56.450737,trace_-56.450737_-1.675046,owner,Votorantim,100001012597.0,100.0,Votorantim,100001012597,100,bauxite_reserves,2022-01-01 00:00:00,2022-12-31 00:00:00,2023-11-29 22:49:35.189299,,,{7061}
25487541,PDC Alcoa Mine,BRA,bauxite-mining,-21.856718,-46.580276,trace_-46.580276_-21.856718,owner,Alcoa,100001000636.0,100.0,Alcoa,100001000636,100,bauxite_reserves,2022-01-01 00:00:00,2022-12-31 00:00:00,2023-11-29 22:49:35.189363,,,{7061}
25487540,Paragominas Mine,BRA,bauxite-mining,-3.251744486,-47.72864167,trace_-47.72864167_-3.251744486,owner,Norsk Hydro,100001012598.0,100.0,Norsk Hydro,100001012598,100,bauxite_reserves,2022-01-01 00:00:00,2022-12-31 00:00:00,2023-11-29 22:49:35.189333,,,{7061}
25487542,Pocos de Caldas Mine,BRA,bauxite-mining,-21.825052,-46.632896,trace_-46.632896_-21.825052,owner,Companhia Brasileria De Aluminio,100001012596.0,100.0,Companhia Brasileria De Aluminio,100001012596,100,bauxite_reserves,2022-01-01 00:00:00,2022-12-31 00:00:00,2023-11-29 22:49:35.189399,,,{7061}
25487544,Saraca Leste Mine,BRA,bauxite-mining,-1.670577,-56.492971,trace_-56.492971_-1.670577,owner,Vale,100001000480.0,100.0,Vale,100001000480,100,bauxite_reserves,2022-01-01 00:00:00,2022-12-31 00:00:00,2023-11-29 22:49:35.189457,,,"{7061,34387,34388,34389,34390,34391,34392}"
25487545,Saraca Oeste Mine,BRA,bauxite-mining,-1.621063,-56.523061,trace_-56.523061_-1.621063,owner,Vale,100001000480.0,100.0,Vale,100001000480,100,bauxite_reserves,2022-01-01 00:00:00,2022-12-31 00:00:00,2023-11-29 22:49:35.189508,,,"{7061,34387,34388,34389,34390,34391,34392}"
25487546,Teofilo Mine,BRA,bauxite-mining,-1.750332,-56.493557,trace_-56.493557_-1.750332,owner,Vale,100001000480.0,100.0,Vale,100001000480,100,bauxite_reserves,2022-01-01 00:00:00,2022-12-31 00:00:00,2023-11-29 22:49:35.189554,,,"{7061,34387,34388,34389,34390,34391,34392}"
25487547,Aojiawan Mine,CHN,bauxite-mining,38.481639,111.221423,trace_111.221423_38.481639,owner,Huaxing Aluminum,100001012599.0,100.0,Huaxing Aluminum,100001012599,100,bauxite_reserves,2022-01-01 00:00:00,2022-12-31 00:00:00,2023-11-29 22:49:35.189588,,,"{7061,34393}"
25487549,Dengfeng Mine,CHN,bauxite-mining,34.461654,113.264855,trace_113.264855_34.461654,owner,Aluminium Corporation of China,100001012600.0,100.0,Aluminium Corporation of China,100001012600,100,bauxite_reserves,2022-01-01 00:00:00,2022-12-31 00:00:00,2023-11-29 22:49:35.189623,,,{7061}
25487553,Lindai Mine,CHN,bauxite-mining,26.659754,106.376943,trace_106.376943_26.659754,owner,Aluminium Corporation of China,100001012600.0,100.0,Aluminium Corporation of China,100001012600,100,bauxite_reserves,2022-01-01 00:00:00,2022-12-31 00:00:00,2023-11-29 22:49:35.189665,,,{7061}
25487554,Maiba Mine,CHN,bauxite-mining,26.618909,106.395545,trace_106.395545_26.618909,owner,Aluminium Corporation of China,100001012600.0,100.0,Aluminium Corporation of China,100001012600,100,bauxite_reserves,2022-01-01 00:00:00,2022-12-31 00:00:00,2023-11-29 22:49:35.189702,,,{7061}
25487555,Mianchi Mine,CHN,bauxite-mining,34.822697,111.622629,trace_111.622629_34.822697,owner,Aluminium Corporation of China,100001012600.0,100.0,Aluminium Corporation of China,100001012600,100,bauxite_reserves,2022-01-01 00:00:00,2022-12-31 00:00:00,2023-11-29 22:49:35.189731,,,{7061}
25487556,Nadou Mine,CHN,bauxite-mining,23.416848,107.467499,trace_107.467499_23.416848,owner,Aluminium Corporation of China,100001012600.0,100.0,Aluminium Corporation of China,100001012600,100,bauxite_reserves,2022-01-01 00:00:00,2022-12-31 00:00:00,2023-11-29 22:49:35.189756,,,{7061}
25487557,Taiping Mine,CHN,bauxite-mining,23.40797,107.61326,trace_107.61326_23.40797,owner,Aluminium Corporation of China,100001012600.0,100.0,Aluminium Corporation of China,100001012600,100,bauxite_reserves,2022-01-01 00:00:00,2022-12-31 00:00:00,2023-11-29 22:49:35.189786,,,{7061}
25487559,Xiangwang Mine,CHN,bauxite-mining,37.178206,111.55105,trace_111.55105_37.178206,owner,Aluminium Corporation of China,100001012600.0,100.0,Aluminium Corporation of China,100001012600,100,bauxite_reserves,2022-01-01 00:00:00,2022-12-31 00:00:00,2023-11-29 22:49:35.189811,,,{7061}
25487560,Xiaoguan Mine,CHN,bauxite-mining,34.707866,113.077109,trace_113.077109_34.707866,owner,Aluminium Corporation of China,100001012600.0,100.0,Aluminium Corporation of China,100001012600,100,bauxite_reserves,2022-01-01 00:00:00,2022-12-31 00:00:00,2023-11-29 22:49:35.189858,,,{7061}
25487562,Xiaoyi-Shaoy Mine,CHN,bauxite-mining,37.109213,111.473182,trace_111.473182_37.109213,owner,Aluminium Corporation of China,100001012600.0,100.0,Aluminium Corporation of China,100001012600,100,bauxite_reserves,2022-01-01 00:00:00,2022-12-31 00:00:00,2023-11-29 22:49:35.189888,,,{7061}
25487563,Xiaoyi-Xingan Mine,CHN,bauxite-mining,37.189684,111.524626,trace_111.524626_37.189684,owner,Aluminium Corporation of China,100001012600.0,100.0,Aluminium Corporation of China,100001012600,100,bauxite_reserves,2022-01-01 00:00:00,2022-12-31 00:00:00,2023-11-29 22:49:35.189916,,,{7061}
25487565,Xinmi Mine,CHN,bauxite-mining,34.591649,113.431452,trace_113.431452_34.591649,owner,Aluminium Corporation of China,100001012600.0,100.0,Aluminium Corporation of China,100001012600,100,bauxite_reserves,2022-01-01 00:00:00,2022-12-31 00:00:00,2023-11-29 22:49:35.189947,,,{7061}
25487566,Xishan Mine,CHN,bauxite-mining,36.966497,111.240715,trace_111.240715_36.966497,owner,Aluminium Corporation of China,100001012600.0,100.0,Aluminium Corporation of China,100001012600,100,bauxite_reserves,2022-01-01 00:00:00,2022-12-31 00:00:00,2023-11-29 22:49:35.189973,,,{7061}
25487567,Yangwa Mine,CHN,bauxite-mining,35.264165,113.15016,trace_113.15016_35.264165,owner,Jiaozuo Longxiang Mine,100001012601.0,100.0,Jiaozuo Longxiang Mine,100001012601,100,bauxite_reserves,2022-01-01 00:00:00,2022-12-31 00:00:00,2023-11-29 22:49:35.189998,,,{7061}
25487568,Yushan Mine,CHN,bauxite-mining,34.865716,112.094154,trace_112.094154_34.865716,owner,Aluminium Corporation of China,100001012600.0,100.0,Aluminium Corporation of China,100001012600,100,bauxite_reserves,2022-01-01 00:00:00,2022-12-31 00:00:00,2023-11-29 22:49:35.190042,,,{7061}
25487569,Awaso Mine,GHA,bauxite-mining,6.235453,-2.284068,trace_-2.284068_6.235453,owner,Ghana Bauxite,100001012602.0,100.0,Ghana Bauxite,100001012602,100,bauxite_reserves,2022-01-01 00:00:00,2022-12-31 00:00:00,2023-11-29 22:49:35.190069,,,{7061}
25487570,Bel Air Mine,GIN,bauxite-mining,10.369991,-14.348559,trace_-14.348559_10.369991,owner,Alufer Mining,100001012603.0,100.0,Alufer Mining,100001012603,100,bauxite_reserves,2022-01-01 00:00:00,2022-12-31 00:00:00,2023-11-29 22:49:35.190099,,,{7061}
25487571,Boffa Mine,GIN,bauxite-mining,10.339651,-13.889564,trace_-13.889564_10.339651,owner,Aluminium Corporation of China,100001012600.0,100.0,Aluminium Corporation of China,100001012600,100,bauxite_reserves,2022-01-01 00:00:00,2022-12-31 00:00:00,2023-11-29 22:49:35.190126,,,{7061}
25487572,Boke Mine,GIN,bauxite-mining,10.895396,-14.225382,trace_-14.225382_10.895396,owner,Compagnie des Bauxites de Guinea,100001012604.0,100.0,Compagnie des Bauxites de Guinea,100001012604,100,bauxite_reserves,2022-01-01 00:00:00,2022-12-31 00:00:00,2023-11-29 22:49:35.190157,,,{7061}
25487573,Dabiss Mine,GIN,bauxite-mining,11.218635,-14.424167,trace_-14.424167_11.218635,owner,SMB-Winning Consortium,100001012605.0,100.0,SMB-Winning Consortium,100001012605,100,bauxite_reserves,2022-01-01 00:00:00,2022-12-31 00:00:00,2023-11-29 22:49:35.190188,,,{7061}
25487574,Dian-Dian Mine,GIN,bauxite-mining,11.034177,-14.115898,trace_-14.115898_11.034177,owner,RUSAL,100001012606.0,100.0,RUSAL,100001012606,100,bauxite_reserves,2022-01-01 00:00:00,2022-12-31 00:00:00,2023-11-29 22:49:35.190222,,,{7061}
25487575,Friguia Mine,GIN,bauxite-mining,10.428077,-13.603378,trace_-13.603378_10.428077,owner,RUSAL,100001012606.0,100.0,RUSAL,100001012606,100,bauxite_reserves,2022-01-01 00:00:00,2022-12-31 00:00:00,2023-11-29 22:49:35.19025,,,{7061}
25487576,Garafiri Mine,GIN,bauxite-mining,10.447144,-12.610246,trace_-12.610246_10.447144,owner,MetalCorp Group,100001012607.0,100.0,MetalCorp Group,100001012607,100,bauxite_reserves,2022-01-01 00:00:00,2022-12-31 00:00:00,2023-11-29 22:49:35.19028,,,{7061}
25487577,Kaboe Mine,GIN,bauxite-mining,11.002306,-14.322764,trace_-14.322764_11.002306,owner,SMB-Winning Consortium,100001012605.0,100.0,SMB-Winning Consortium,100001012605,100,bauxite_reserves,2022-01-01 00:00:00,2022-12-31 00:00:00,2023-11-29 22:49:35.190306,,,{7061}
25487578,Kindia Mine,GIN,bauxite-mining,9.885447,-13.127949,trace_-13.127949_9.885447,owner,RUSAL,100001012606.0,100.0,RUSAL,100001012606,100,bauxite_reserves,2022-01-01 00:00:00,2022-12-31 00:00:00,2023-11-29 22:49:35.190337,,,{7061}
25487579,Malapouya Mine,GIN,bauxite-mining,10.719171,-14.17733,trace_-14.17733_10.719171,owner,SMB-Winning Consortium,100001012605.0,100.0,SMB-Winning Consortium,100001012605,100,bauxite_reserves,2022-01-01 00:00:00,2022-12-31 00:00:00,2023-11-29 22:49:35.190371,,,{7061}
25487580,Sangaredi Mine,GIN,bauxite-mining,11.085064,-13.793999,trace_-13.793999_11.085064,owner,Compagnie des Bauxites de Guinea,100001012604.0,100.0,Compagnie des Bauxites de Guinea,100001012604,100,bauxite_reserves,2022-01-01 00:00:00,2022-12-31 00:00:00,2023-11-29 22:49:35.190403,,,{7061}
25487582,Aroaima Mine,GUY,bauxite-mining,5.370704,-58.045044,trace_-58.045044_5.370704,owner,RUSAL,100001012606.0,100.0,RUSAL,100001012606,100,bauxite_reserves,2022-01-01 00:00:00,2022-12-31 00:00:00,2023-11-29 22:49:35.190428,,,{7061}
25487583,Bonasika Mine,GUY,bauxite-mining,6.418309,-58.4702576,trace_-58.4702576_6.418309,owner,Guyana Industrial Minerals,100001012608.0,100.0,Guyana Industrial Minerals,100001012608,100,bauxite_reserves,2022-01-01 00:00:00,2022-12-31 00:00:00,2023-11-29 22:49:35.190459,,,{7061}
25487584,Omai Mine,GUY,bauxite-mining,5.930071,-58.280505,trace_-58.280505_5.930071,owner,Bosai Minerals Group,100001012609.0,100.0,Bosai Minerals Group,100001012609,100,bauxite_reserves,2022-01-01 00:00:00,2022-12-31 00:00:00,2023-11-29 22:49:35.190489,,,{7061}
25487586,East Kotawaringin Mine,IDN,bauxite-mining,-2.134598,112.9966,trace_112.9966_-2.134598,owner,Duta Borneo Pratama,100001012610.0,100.0,Duta Borneo Pratama,100001012610,100,bauxite_reserves,2022-01-01 00:00:00,2022-12-31 00:00:00,2023-11-29 22:49:35.190531,,,"{7061,34394}"
25487588,Galang Batang Mine,IDN,bauxite-mining,0.953307,104.632568,trace_104.632568_0.953307,owner,Global Aluminium International,100000120503.0,72.7,PT Bintan Alumina Indonesia,100000120999,100,bauxite_reserves,2022-01-01 00:00:00,2022-12-31 00:00:00,2023-11-29 22:49:35.190589,,,{7061}
25487588,Galang Batang Mine,IDN,bauxite-mining,0.953307,104.632568,trace_104.632568_0.953307,owner,Press Metal Aluminium Holdings,100000121138.0,25.0,PT Bintan Alumina Indonesia,100000120999,100,bauxite_reserves,2022-01-01 00:00:00,2022-12-31 00:00:00,2023-11-29 22:49:35.190622,,,{7061}
25487588,Galang Batang Mine,IDN,bauxite-mining,0.953307,104.632568,trace_104.632568_0.953307,owner,PT Mahkota Karya Utama,100001000921.0,2.3,PT Bintan Alumina Indonesia,100000120999,100,bauxite_reserves,2022-01-01 00:00:00,2022-12-31 00:00:00,2023-11-29 22:49:35.190561,,,{7061}
25487589,Kendawangan Mine,IDN,bauxite-mining,-2.391357,110.217376,trace_110.217376_-2.391357,owner,WHW,100001012611.0,100.0,WHW,100001012611,100,bauxite_reserves,2022-01-01 00:00:00,2022-12-31 00:00:00,2023-11-29 22:49:35.190656,,,"{7061,34395}"
25487591,Ngabang Mine,IDN,bauxite-mining,0.154039,109.878342,trace_109.878342_0.154039,owner,PT Aneka Tambang,100000120990.0,100.0,PT Aneka Tambang,100000120990,100,bauxite_reserves,2022-01-01 00:00:00,2022-12-31 00:00:00,2023-11-29 22:49:35.190683,,,{7061}
25487592,Parenggean Mine,IDN,bauxite-mining,-2.019862,112.781612,trace_112.781612_-2.019862,owner,Parenggean Makmur Sejahtera,100001012612.0,100.0,Parenggean Makmur Sejahtera,100001012612,100,bauxite_reserves,2022-01-01 00:00:00,2022-12-31 00:00:00,2023-11-29 22:49:35.190712,,,"{7061,34396}"
25487593,Sansat Mine,IDN,bauxite-mining,-0.102398,109.964896,trace_109.964896_-0.102398,owner,Mekko Metal Mining,100001012613.0,100.0,Mekko Metal Mining,100001012613,100,bauxite_reserves,2022-01-01 00:00:00,2022-12-31 00:00:00,2023-11-29 22:49:35.190757,,,{7061}
25487595,Tayan Mine,IDN,bauxite-mining,-0.063916,110.146684,trace_110.146684_-0.063916,owner,Antam BK,100001012614.0,100.0,Antam BK,100001012614,100,bauxite_reserves,2022-01-01 00:00:00,2022-12-31 00:00:00,2023-11-29 22:49:35.190787,,,"{7061,34397}"
25487596,Tembeling Mine,IDN,bauxite-mining,1.015664,104.462855,trace_104.462855_1.015664,owner,PT Aneka Tambang,100000120990.0,100.0,PT Aneka Tambang,100000120990,100,bauxite_reserves,2022-01-01 00:00:00,2022-12-31 00:00:00,2023-11-29 22:49:35.190812,,,{7061}
25487598,Bagmandala Mine,IND,bauxite-mining,18.016995,73.049746,trace_73.049746_18.016995,owner,Alatge Stone Crushing Industries,100001012615.0,100.0,Alatge Stone Crushing Industries,100001012615,100,bauxite_reserves,2022-01-01 00:00:00,2022-12-31 00:00:00,2023-11-29 22:49:35.190839,,,{7061}
25487599,Bagru Mine,IND,bauxite-mining,23.488197,84.597296,trace_84.597296_23.488197,owner,Hindalco Industries,100000120560.0,100.0,Hindalco Industries,100000120560,100,bauxite_reserves,2022-01-01 00:00:00,2022-12-31 00:00:00,2023-11-29 22:49:35.190868,,,"{6988,7061}"
25487600,Baphlimali Mine,IND,bauxite-mining,19.347145,82.970139,trace_82.970139_19.347145,owner,Hindalco Industries,100000120560.0,,Utkal Alumina International Limited,100001012548,100,bauxite_reserves,2022-01-01 00:00:00,2022-12-31 00:00:00,2023-11-29 22:49:35.190893,,,{7061}
25487600,Baphlimali Mine,IND,bauxite-mining,19.347145,82.970139,trace_82.970139_19.347145,owner,,,,Utkal Alumina International Limited,100001012548,100,bauxite_reserves,2022-01-01 00:00:00,2022-12-31 00:00:00,2023-11-29 22:49:35.190919,,,{7061}
25487602,Bimarla Mine,IND,bauxite-mining,23.285382,84.421041,trace_84.421041_23.285382,owner,Minerals & Minerals,100001012616.0,100.0,Minerals & Minerals,100001012616,100,bauxite_reserves,2022-01-01 00:00:00,2022-12-31 00:00:00,2023-11-29 22:49:35.190951,,,"{7061,34398}"
25487603,Bodai-Daldali Mine,IND,bauxite-mining,22.41574,81.187474,trace_81.187474_22.41574,owner,Governmenrt of India,100001000397.0,100.0,Governmenrt of India,100001000397,100,bauxite_reserves,2022-01-01 00:00:00,2022-12-31 00:00:00,2023-11-29 22:49:35.190976,,,{7061}
25487604,Chachandeeh Mine,IND,bauxite-mining,22.834809,81.625283,trace_81.625283_22.834809,owner,MP State Mining,100001012617.0,100.0,MP State Mining,100001012617,100,bauxite_reserves,2022-01-01 00:00:00,2022-12-31 00:00:00,2023-11-29 22:49:35.191,,,{7061}
25487605,Chirodih Mine,IND,bauxite-mining,23.310296,84.291936,trace_84.291936_23.310296,owner,Mineral & Mineral,100001012618.0,100.0,Mineral & Mineral,100001012618,100,bauxite_reserves,2022-01-01 00:00:00,2022-12-31 00:00:00,2023-11-29 22:49:35.191032,,,"{7061,34398}"
25487607,Dandguri Mine,IND,bauxite-mining,18.143245,73.012793,trace_73.012793_18.143245,owner,Bharatesh Construction,100001012619.0,100.0,Bharatesh Construction,100001012619,100,bauxite_reserves,2022-01-01 00:00:00,2022-12-31 00:00:00,2023-11-29 22:49:35.191062,,,"{7061,34399}"
25487609,Dhanagarwadi Mine,IND,bauxite-mining,16.905913,73.846433,trace_73.846433_16.905913,owner,Hindalco Industries,100000120560.0,100.0,Hindalco Industries,100000120560,100,bauxite_reserves,2022-01-01 00:00:00,2022-12-31 00:00:00,2023-11-29 22:49:35.191092,,,"{6988,7061}"
25487611,Girgaon Mine,IND,bauxite-mining,16.850096,73.875017,trace_73.875017_16.850096,owner,Manjare Girgaon Mines Private,100001012620.0,100.0,Manjare Girgaon Mines Private,100001012620,100,bauxite_reserves,2022-01-01 00:00:00,2022-12-31 00:00:00,2023-11-29 22:49:35.191117,,,{7061}
25487612,Gudeghar Mine,IND,bauxite-mining,17.962296,73.116514,trace_73.116514_17.962296,owner,Milind Sardessai Infrastructure Logistics,100001012621.0,100.0,Milind Sardessai Infrastructure Logistics,100001012621,100,bauxite_reserves,2022-01-01 00:00:00,2022-12-31 00:00:00,2023-11-29 22:49:35.191147,,,{7061}
25487613,Gurdari Mine,IND,bauxite-mining,23.33856,84.25923,trace_84.25923_23.33856,owner,Hindalco Industries,100000120560.0,100.0,Hindalco Industries,100000120560,100,bauxite_reserves,2022-01-01 00:00:00,2022-12-31 00:00:00,2023-11-29 22:49:35.191179,,,"{6988,7061}"
25487615,Kodingamali Mine,IND,bauxite-mining,19.062612,83.075889,trace_83.075889_19.062612,owner,Odisha Mining,100001012622.0,100.0,Odisha Mining,100001012622,100,bauxite_reserves,2022-01-01 00:00:00,2022-12-31 00:00:00,2023-11-29 22:49:35.191204,,,{7061}
25487616,Kudgaon Mine,IND,bauxite-mining,18.219656,72.979479,trace_72.979479_18.219656,owner,Bhartesh Construction,100001012623.0,100.0,Bhartesh Construction,100001012623,100,bauxite_reserves,2022-01-01 00:00:00,2022-12-31 00:00:00,2023-11-29 22:49:35.191235,,,"{7061,34399}"
25487617,Kurawade Mine,IND,bauxite-mining,18.014119,73.020453,trace_73.020453_18.014119,owner,Altage Stone Crushing Industry,100001012624.0,100.0,Altage Stone Crushing Industry,100001012624,100,bauxite_reserves,2022-01-01 00:00:00,2022-12-31 00:00:00,2023-11-29 22:49:35.191266,,,{7061}
25487618,Mahalmirya Mine,IND,bauxite-mining,18.678495,73.153834,trace_73.153834_18.678495,owner,Vyaghreshwar Minerals,100001012625.0,100.0,Vyaghreshwar Minerals,100001012625,100,bauxite_reserves,2022-01-01 00:00:00,2022-12-31 00:00:00,2023-11-29 22:49:35.191291,,,{7061}
25487619,Mainpat Mine,IND,bauxite-mining,22.86575,83.297576,trace_83.297576_22.86575,owner,Governmenrt of India,100001000397.0,100.0,Governmenrt of India,100001000397,100,bauxite_reserves,2022-01-01 00:00:00,2022-12-31 00:00:00,2023-11-29 22:49:35.191317,,,{7061}
25487621,Meghare Mine,IND,bauxite-mining,18.09854,73.039409,trace_73.039409_18.09854,owner,Shri Manohar Daryanani,100001012626.0,100.0,Shri Manohar Daryanani,100001012626,100,bauxite_reserves,2022-01-01 00:00:00,2022-12-31 00:00:00,2023-11-29 22:49:35.191348,,,{7061}
25487624,Nana-Goniyasar Mine,IND,bauxite-mining,22.998174,69.395363,trace_69.395363_22.998174,owner,Shri Arunkumar Solanki,100001012627.0,100.0,Shri Arunkumar Solanki,100001012627,100,bauxite_reserves,2022-01-01 00:00:00,2022-12-31 00:00:00,2023-11-29 22:49:35.191377,,,{7061}
25487625,Naredi-2 Mine,IND,bauxite-mining,23.20673,69.190391,trace_69.190391_23.20673,owner,Shri Arunkumar Solanki,100001012627.0,100.0,Shri Arunkumar Solanki,100001012627,100,bauxite_reserves,2022-01-01 00:00:00,2022-12-31 00:00:00,2023-11-29 22:49:35.191409,,,{7061}
25487626,Naredi-Nandra Mine,IND,bauxite-mining,23.185476,69.210584,trace_69.210584_23.185476,owner,Shri Arunkumar Solanki,100001012627.0,100.0,Shri Arunkumar Solanki,100001012627,100,bauxite_reserves,2022-01-01 00:00:00,2022-12-31 00:00:00,2023-11-29 22:49:35.191565,,,{7061}
25487627,Padasali Mine,IND,bauxite-mining,16.448783,73.940844,trace_73.940844_16.448783,owner,Hindalco Industries,100000120560.0,100.0,Hindalco Industries,100000120560,100,bauxite_reserves,2022-01-01 00:00:00,2022-12-31 00:00:00,2023-11-29 22:49:35.191598,,,"{6988,7061}"
25487628,Pakhar Mine,IND,bauxite-mining,23.542595,84.607923,trace_84.607923_23.542595,owner,Hindalco Industries,100000120560.0,100.0,Hindalco Industries,100000120560,100,bauxite_reserves,2022-01-01 00:00:00,2022-12-31 00:00:00,2023-11-29 22:49:35.191626,,,"{6988,7061}"
25487629,Panchpatmalli Mine,IND,bauxite-mining,18.86149,83.02233,trace_83.02233_18.86149,owner,National Aluminum Company,100001012628.0,100.0,National Aluminum Company,100001012628,100,bauxite_reserves,2022-01-01 00:00:00,2022-12-31 00:00:00,2023-11-29 22:49:35.191654,,,{7061}
25487631,Putka Mine,IND,bauxite-mining,22.556114,82.762012,trace_82.762012_22.556114,owner,Shri Jyoti Pramanik,100001012629.0,100.0,Shri Jyoti Pramanik,100001012629,100,bauxite_reserves,2022-01-01 00:00:00,2022-12-31 00:00:00,2023-11-29 22:49:35.191679,,,{7061}
25487632,Quitol Mine,IND,bauxite-mining,15.12697,73.96349,trace_73.96349_15.12697,owner,Bhumipurusha Minerals,100001012630.0,100.0,Bhumipurusha Minerals,100001012630,100,bauxite_reserves,2022-01-01 00:00:00,2022-12-31 00:00:00,2023-11-29 22:49:35.191706,,,"{7061,34400}"
25487634,Roha-Kotda Mine,IND,bauxite-mining,23.163192,69.226171,trace_69.226171_23.163192,owner,Shri Arunkumar Solanki,100001012627.0,100.0,Shri Arunkumar Solanki,100001012627,100,bauxite_reserves,2022-01-01 00:00:00,2022-12-31 00:00:00,2023-11-29 22:49:35.191754,,,{7061}
25487635,Rowale Mine,IND,bauxite-mining,17.911396,73.102127,trace_73.102127_17.911396,owner,Ashapura Minechem,100001012631.0,100.0,Ashapura Minechem,100001012631,100,bauxite_reserves,2022-01-01 00:00:00,2022-12-31 00:00:00,2023-11-29 22:49:35.191777,,,{7061}
25487636,Sakhari Mine,IND,bauxite-mining,17.942982,73.054584,trace_73.054584_17.942982,owner,Ashapura Minechem,100001012631.0,100.0,Ashapura Minechem,100001012631,100,bauxite_reserves,2022-01-01 00:00:00,2022-12-31 00:00:00,2023-11-29 22:49:35.191804,,,{7061}
25487637,Serangdag Mine,IND,bauxite-mining,23.382926,84.470661,trace_84.470661_23.382926,owner,Indian Aluminium,100001012632.0,100.0,Indian Aluminium,100001012632,100,bauxite_reserves,2022-01-01 00:00:00,2022-12-31 00:00:00,2023-11-29 22:49:35.191832,,,{7061}
25487638,Shivram Mine,IND,bauxite-mining,16.833291,73.903629,trace_73.903629_16.833291,owner,Shivram Minerals,100001012633.0,100.0,Shivram Minerals,100001012633,100,bauxite_reserves,2022-01-01 00:00:00,2022-12-31 00:00:00,2023-11-29 22:49:35.191855,,,{7061}
25487639,Udgiri Mine,IND,bauxite-mining,17.090932,73.831758,trace_73.831758_17.090932,owner,RM Mohite,100001012634.0,100.0,RM Mohite,100001012634,100,bauxite_reserves,2022-01-01 00:00:00,2022-12-31 00:00:00,2023-11-29 22:49:35.19188,,,{7061}
25487640,Umbarshet Mine,IND,bauxite-mining,17.920452,73.087825,trace_73.087825_17.920452,owner,Chetan N Shah,100001012635.0,100.0,Chetan N Shah,100001012635,100,bauxite_reserves,2022-01-01 00:00:00,2022-12-31 00:00:00,2023-11-29 22:49:35.191906,,,{7061}
25487642,Yelwan Jugai Mine,IND,bauxite-mining,16.85718,73.823926,trace_73.823926_16.85718,owner,Shri Warana Minerals,100001012636.0,100.0,Shri Warana Minerals,100001012636,100,bauxite_reserves,2022-01-01 00:00:00,2022-12-31 00:00:00,2023-11-29 22:49:35.191929,,,{7061}
25487644,Chekchek Mine,IRN,bauxite-mining,32.35541,54.391177,trace_54.391177_32.35541,owner,Iran Alumina,100001012637.0,100.0,Iran Alumina,100001012637,100,bauxite_reserves,2022-01-01 00:00:00,2022-12-31 00:00:00,2023-11-29 22:49:35.191958,,,"{7061,34401}"
25487645,Dehdasht Mine,IRN,bauxite-mining,32.0543027,54.6410531,trace_54.6410531_32.0543027,owner,Iran Alumina,100001012637.0,100.0,Iran Alumina,100001012637,100,bauxite_reserves,2022-01-01 00:00:00,2022-12-31 00:00:00,2023-11-29 22:49:35.191984,,,"{7061,34401}"
25487647,Jajarm Mine,IRN,bauxite-mining,37.050266,56.494712,trace_56.494712_37.050266,owner,Iran Alumina,100001012637.0,100.0,Iran Alumina,100001012637,100,bauxite_reserves,2022-01-01 00:00:00,2022-12-31 00:00:00,2023-11-29 22:49:35.192013,,,"{7061,34401}"
25487650,Kouhbaba Mine,IRN,bauxite-mining,37.063184,56.40395,trace_56.40395_37.063184,owner,Iran Alumina,100001012637.0,100.0,Iran Alumina,100001012637,100,bauxite_reserves,2022-01-01 00:00:00,2022-12-31 00:00:00,2023-11-29 22:49:35.19204,,,"{7061,34401}"
25487653,Shahid Nilchian Mine,IRN,bauxite-mining,31.904348,50.643107,trace_50.643107_31.904348,owner,Nehin Ehya Mines Complex,100001012638.0,100.0,Nehin Ehya Mines Complex,100001012638,100,bauxite_reserves,2022-01-01 00:00:00,2022-12-31 00:00:00,2023-11-29 22:49:35.192066,,,{7061}
25487654,Tash Mine,IRN,bauxite-mining,36.588195,54.706432,trace_54.706432_36.588195,owner,Iran Alumina,100001012637.0,100.0,Iran Alumina,100001012637,100,bauxite_reserves,2022-01-01 00:00:00,2022-12-31 00:00:00,2023-11-29 22:49:35.192094,,,"{7061,34401}"
25487655,Breadnut Valley Mine,JAM,bauxite-mining,18.04586,-77.360774,trace_-77.360774_18.04586,owner,Jamalco,100000120666.0,100.0,Jamalco,100000120666,100,bauxite_reserves,2022-01-01 00:00:00,2022-12-31 00:00:00,2023-11-29 22:49:35.192119,,,{7061}
25487656,Discovery Bay Mine,JAM,bauxite-mining,18.461336,-77.423983,trace_-77.423983_18.461336,owner,Jamaica Bauxite Mining,100001012639.0,100.0,Jamaica Bauxite Mining,100001012639,100,bauxite_reserves,2022-01-01 00:00:00,2022-12-31 00:00:00,2023-11-29 22:49:35.192146,,,{7061}
25487657,Harmons Valley Mine,JAM,bauxite-mining,17.992149,-77.416366,trace_-77.416366_17.992149,owner,Jamalco,100000120666.0,100.0,Jamalco,100000120666,100,bauxite_reserves,2022-01-01 00:00:00,2022-12-31 00:00:00,2023-11-29 22:49:35.19217,,,{7061}
25487658,Kirkvine Mine,JAM,bauxite-mining,18.087195,-77.480805,trace_-77.480805_18.087195,owner,Alcan Jamaica,100001012640.0,100.0,Alcan Jamaica,100001012640,100,bauxite_reserves,2022-01-01 00:00:00,2022-12-31 00:00:00,2023-11-29 22:49:35.192194,,,{7061}
25487659,Mount Oliphant Mine,JAM,bauxite-mining,17.936606,-77.413152,trace_-77.413152_17.936606,owner,West Indies Alumina,100001012641.0,100.0,West Indies Alumina,100001012641,100,bauxite_reserves,2022-01-01 00:00:00,2022-12-31 00:00:00,2023-11-29 22:49:35.192218,,,{7061}
25487660,Nain Mine,JAM,bauxite-mining,17.951055,-77.619968,trace_-77.619968_17.951055,owner,JISCO Alpart,100001012642.0,100.0,JISCO Alpart,100001012642,100,bauxite_reserves,2022-01-01 00:00:00,2022-12-31 00:00:00,2023-11-29 22:49:35.192241,,,{7061}
25487661,Schwallenburgh Mine,JAM,bauxite-mining,18.296162,-77.062957,trace_-77.062957_18.296162,owner,West Indies Alumina,100001012641.0,100.0,West Indies Alumina,100001012641,100,bauxite_reserves,2022-01-01 00:00:00,2022-12-31 00:00:00,2023-11-29 22:49:35.192272,,,{7061}
25487662,St. Ann Mine,JAM,bauxite-mining,18.353197,-77.398342,trace_-77.398342_18.353197,owner,Noranda Bauxite,100001012643.0,100.0,Noranda Bauxite,100001012643,100,bauxite_reserves,2022-01-01 00:00:00,2022-12-31 00:00:00,2023-11-29 22:49:35.192296,,,{7061}
25487664,Krasno-Oktyabrskoye Mine,KAZ,bauxite-mining,52.027843,62.367019,trace_62.367019_52.027843,owner,Eurasian Resources Group,100000000689.0,100.0,Eurasian Resources Group,100000000689,100,bauxite_reserves,2022-01-01 00:00:00,2022-12-31 00:00:00,2023-11-29 22:49:35.192323,,,"{6256,7061}"
25487666,Vostochno-Ayatsky Mine,KAZ,bauxite-mining,52.688269,62.892394,trace_62.892394_52.688269,owner,Eurasian Natural Resources,100001012644.0,100.0,Eurasian Natural Resources,100001012644,100,bauxite_reserves,2022-01-01 00:00:00,2022-12-31 00:00:00,2023-11-29 22:49:35.192348,,,{7061}
25487667,Kutsko Mine,MNE,bauxite-mining,42.736899,19.165622,trace_19.165622_42.736899,owner,Uniprom Niksic,100001013152.0,100.0,Uniprom Niksic,100001013152,100,bauxite_reserves,2022-01-01 00:00:00,2022-12-31 00:00:00,2023-11-29 22:49:35.192374,,,{7061}
25487668,Niksic Operation,MNE,bauxite-mining,42.744581,19.135758,trace_19.135758_42.744581,owner,Central European Aluminum,100001013153.0,100.0,Central European Aluminum,100001013153,100,bauxite_reserves,2022-01-01 00:00:00,2022-12-31 00:00:00,2023-11-29 22:49:35.192398,,,{7061}
25487669,Stitovo Mine,MNE,bauxite-mining,42.74248557,19.14051167,trace_19.14051167_42.74248557,owner,Uniprom Niksic,100001013152.0,100.0,Uniprom Niksic,100001013152,100,bauxite_reserves,2022-01-01 00:00:00,2022-12-31 00:00:00,2023-11-29 22:49:35.192426,,,{7061}
25487670,Zagrad Mine,MNE,bauxite-mining,42.760835,19.083019,trace_19.083019_42.760835,owner,Uniprom Niksic,100001013152.0,100.0,Uniprom Niksic,100001013152,100,bauxite_reserves,2022-01-01 00:00:00,2022-12-31 00:00:00,2023-11-29 22:49:35.192452,,,{7061}
25487671,Zeta Mine,MNE,bauxite-mining,42.759955,19.160022,trace_19.160022_42.759955,owner,Uniprom Niksic,100001013152.0,100.0,Uniprom Niksic,100001013152,100,bauxite_reserves,2022-01-01 00:00:00,2022-12-31 00:00:00,2023-11-29 22:49:35.192478,,,{7061}
25487672,Vila de Manica Mine,MOZ,bauxite-mining,-18.828038,32.733393,trace_32.733393_-18.828038,owner,Mina Alumina,100001013154.0,100.0,Mina Alumina,100001013154,100,bauxite_reserves,2022-01-01 00:00:00,2022-12-31 00:00:00,2023-11-29 22:49:35.192505,,,{7061}
25487673,Bukit Goh Mine,MYS,bauxite-mining,3.901042,103.283935,trace_103.283935_3.901042,owner,PKNP Mineral Industries,100001012645.0,100.0,PKNP Mineral Industries,100001012645,100,bauxite_reserves,2022-01-01 00:00:00,2022-12-31 00:00:00,2023-11-29 22:49:35.192532,,,{7061}
25487674,Pengerang Mine,MYS,bauxite-mining,1.366331,104.117653,trace_104.117653_1.366331,owner,Chemone Holdings,100001012646.0,100.0,Chemone Holdings,100001012646,100,bauxite_reserves,2022-01-01 00:00:00,2022-12-31 00:00:00,2023-11-29 22:49:35.192573,,,{7061}
25487675,Teluk Ramunia Mine,MYS,bauxite-mining,1.385826,104.237299,trace_104.237299_1.385826,owner,Alcan,100001012647.0,100.0,Alcan,100001012647,100,bauxite_reserves,2022-01-01 00:00:00,2022-12-31 00:00:00,2023-11-29 22:49:35.192599,,,{7061}
25487676,Krasnaya Shapochka Mine,RUS,bauxite-mining,60.19806,59.97278,trace_59.97278_60.19806,owner,RUSAL,100001012606.0,100.0,RUSAL,100001012606,100,bauxite_reserves,2022-01-01 00:00:00,2022-12-31 00:00:00,2023-11-29 22:49:35.192622,,,{7061}
25487677,Severo-Onezhskiy Mine,RUS,bauxite-mining,62.564771,39.694262,trace_39.694262_62.564771,owner,En+ Group,100000001471.0,100.0,En+ Group,100000001471,100,bauxite_reserves,2022-01-01 00:00:00,2022-12-31 00:00:00,2023-11-29 22:49:35.192652,,,"{7008,7061}"
25487678,Severouralsk Operation,RUS,bauxite-mining,60.248129,60.004483,trace_60.004483_60.248129,owner,SUAL Group,100001013155.0,100.0,SUAL Group,100001013155,100,bauxite_reserves,2022-01-01 00:00:00,2022-12-31 00:00:00,2023-11-29 22:49:35.192683,,,"{7061,34402,34403}"
25487679,Sredne-Timanskiy Mine,RUS,bauxite-mining,64.31116784,51.13545807,trace_51.13545807_64.31116784,owner,RUSAL,100001012606.0,100.0,RUSAL,100001012606,100,bauxite_reserves,2022-01-01 00:00:00,2022-12-31 00:00:00,2023-11-29 22:49:35.192708,,,{7061}
25487680,Al Ba'itha Mine,SAU,bauxite-mining,27.67150657,43.98679371,trace_43.98679371_27.67150657,owner,Maaden Saudi Arabian Mining,100001012648.0,100.0,Maaden Saudi Arabian Mining,100001012648,100,bauxite_reserves,2022-01-01 00:00:00,2022-12-31 00:00:00,2023-11-29 22:49:35.192734,,,"{7061,34404}"
25487681,Az Zabirah Mine,SAU,bauxite-mining,27.90420934,43.73633532,trace_43.73633532_27.90420934,owner,Maaden Saudi Arabian Mining,100001012648.0,100.0,Maaden Saudi Arabian Mining,100001012648,100,bauxite_reserves,2022-01-01 00:00:00,2022-12-31 00:00:00,2023-11-29 22:49:35.192762,,,"{7061,34404}"
25487682,West Rennell Islands Mine,SLB,bauxite-mining,-11.593907,160.068946,trace_160.068946_-11.593907,owner,Bintang Delapan Group,100001013156.0,100.0,Bintang Delapan Group,100001013156,100,bauxite_reserves,2022-01-01 00:00:00,2022-12-31 00:00:00,2023-11-29 22:49:35.192785,,,{7061}
25487683,Sierra Minerals Mine,SLE,bauxite-mining,7.762471,-12.13931,trace_-12.13931_7.762471,owner,Sierra Mineral Holdings,100001012649.0,100.0,Sierra Mineral Holdings,100001012649,100,bauxite_reserves,2022-01-01 00:00:00,2022-12-31 00:00:00,2023-11-29 22:49:35.192809,,,{7061}
25487684,Coermotibo Mine,SUR,bauxite-mining,5.546493,-54.302759,trace_-54.302759_5.546493,owner,Suriname Aluminium,100001012650.0,100.0,Suriname Aluminium,100001012650,100,bauxite_reserves,2022-01-01 00:00:00,2022-12-31 00:00:00,2023-11-29 22:49:35.192835,,,{7061}
25487685,Kaaimangrasie Mine,SUR,bauxite-mining,5.651485,-54.820702,trace_-54.820702_5.651485,owner,Suriname Aluminium,100001012650.0,100.0,Suriname Aluminium,100001012650,100,bauxite_reserves,2022-01-01 00:00:00,2022-12-31 00:00:00,2023-11-29 22:49:35.192858,,,{7061}
25487686,Klaverblad Mine,SUR,bauxite-mining,5.593046,-55.119593,trace_-55.119593_5.593046,owner,Suriname Aluminium,100001012650.0,100.0,Suriname Aluminium,100001012650,100,bauxite_reserves,2022-01-01 00:00:00,2022-12-31 00:00:00,2023-11-29 22:49:35.192884,,,{7061}
25487688,Ilhan Mine,TUR,bauxite-mining,37.007382,36.590752,trace_36.590752_37.007382,owner,Ilhan Trading,100001013157.0,100.0,Ilhan Trading,100001013157,100,bauxite_reserves,2022-01-01 00:00:00,2022-12-31 00:00:00,2023-11-29 22:49:35.192908,,,{7061}
25487689,Islahiye Mine,TUR,bauxite-mining,36.92602,36.53764,trace_36.53764_36.92602,owner,CTC Energy & Mining,100001013158.0,100.0,CTC Energy & Mining,100001013158,100,bauxite_reserves,2022-01-01 00:00:00,2022-12-31 00:00:00,2023-11-29 22:49:35.192938,,,"{7061,34405}"
25487690,Seydisehir Mine,TUR,bauxite-mining,37.281241,31.881483,trace_31.881483_37.281241,owner,Etibank General,100001013159.0,100.0,Etibank General,100001013159,100,bauxite_reserves,2022-01-01 00:00:00,2022-12-31 00:00:00,2023-11-29 22:49:35.192963,,,{7061}
25487691,Tufanbeyli Mine,TUR,bauxite-mining,38.242844,36.289852,trace_36.289852_38.242844,owner,Standard Boksit Isletmeleri AS,100001012651.0,100.0,Standard Boksit Isletmeleri AS,100001012651,100,bauxite_reserves,2022-01-01 00:00:00,2022-12-31 00:00:00,2023-11-29 22:49:35.192989,,,{7061}
25487692,Yilanli Dag Mine,TUR,bauxite-mining,37.2001958,28.4594854,trace_28.4594854_37.2001958,owner,Grafit Mining,100001013160.0,100.0,Grafit Mining,100001013160,100,bauxite_reserves,2022-01-01 00:00:00,2022-12-31 00:00:00,2023-11-29 22:49:35.193022,,,{7061}
25487693,Nhan Co Mine ,VNM,bauxite-mining,11.956118,107.551422,trace_107.551422_11.956118,owner,Dak Nong Aluminum,100001013161.0,100.0,Dak Nong Aluminum,100001013161,100,bauxite_reserves,2022-01-01 00:00:00,2022-12-31 00:00:00,2023-11-29 22:49:35.193049,,,"{7061,34406}"
25487694,Tan Rhai Mine,VNM,bauxite-mining,11.65778678,107.8405821,trace_107.8405821_11.65778678,owner,Vietnam National Coal & Mineral Industries Group,100001013162.0,100.0,Vietnam National Coal & Mineral Industries Group,100001013162,100,bauxite_reserves,2022-01-01 00:00:00,2022-12-31 00:00:00,2023-11-29 22:49:35.193077,,,{7061}
