source_id,source_name,iso3_country,original_inventory_sector,lat,lon,geometry_ref,relationship,ultimate_parent_name,ultimate_parent_id,percent_interest_parent,company_name,company_id,percent_interest_company,interest_units,start_date,end_date,created_date,modified_date,percent_company_datasource,percent_parent_datasource
3143714,Ghazanfar Oil Refinery,AFG,oil-and-gas-refining,37.208141,67.408271,trace_67.408271_37.208141,owner,Ghazanfar Group,100001010486.0,100.0,Ghazanfar Group,100001010486,100.0,real_property_refinery,2022-01-01 00:00:00,2022-12-31 00:00:00,2023-11-29 22:49:36.227296,,,{7061}
3143722,Sonagol Luanda Refinery,AGO,oil-and-gas-refining,-8.779845,13.298064,trace_13.298064_-8.779845,owner,Sonangol,100001010715.0,100.0,Sonangol,100001010715,100.0,real_property_refinery,2022-01-01 00:00:00,2022-12-31 00:00:00,2023-11-29 22:49:36.227531,,,{7061}
3143715,Armo Ballsh Refinery,ALB,oil-and-gas-refining,40.604904,19.755851,trace_19.755851_40.604904,owner,Armo,100001014633.0,100.0,Armo,100001014633,100.0,real_property_refinery,2022-01-01 00:00:00,2022-12-31 00:00:00,2023-11-29 22:49:36.227316,,,"{7061,34398}"
3144156,Abu Dhabi National Oil Company Umm Al-Narr Refinery,ARE,oil-and-gas-refining,24.43696,54.49262,trace_54.49262_24.43696,owner,ADNOC,100001014755.0,100.0,ADNOC,100001014755,100.0,real_property_refinery,2022-01-01 00:00:00,2022-12-31 00:00:00,2023-11-29 22:49:36.235756,,,{7061}
3144154,Abu Dhabi Oil Refining Company Al-Ruwais Refinery,ARE,oil-and-gas-refining,24.12462,52.71988,trace_52.71988_24.12462,owner,ADNOC,100001014755.0,100.0,ADNOC,100001014755,100.0,real_property_refinery,2022-01-01 00:00:00,2022-12-31 00:00:00,2023-11-29 22:49:36.235725,,,{7061}
3144155,ENOC Jebel Ali Refinery,ARE,oil-and-gas-refining,25.00761,55.0593,trace_55.0593_25.00761,owner,Emirates National Oil,100001014756.0,100.0,Emirates National Oil,100001014756,100.0,real_property_refinery,2022-01-01 00:00:00,2022-12-31 00:00:00,2023-11-29 22:49:36.235741,,,{7061}
3144157,Sharjah Oil Refinery,ARE,oil-and-gas-refining,25.475291,55.506768,trace_55.506768_25.475291,owner,Sharjah National Oil,100001014757.0,100.0,Sharjah National Oil,100001014757,100.0,real_property_refinery,2022-01-01 00:00:00,2022-12-31 00:00:00,2023-11-29 22:49:36.235772,,,{7061}
3144158,Uniper Fujairah Refinery,ARE,oil-and-gas-refining,25.194082,56.355782,trace_56.355782_25.194082,owner,Uniper,100000000457.0,100.0,Uniper,100000000457,100.0,real_property_refinery,2022-01-01 00:00:00,2022-12-31 00:00:00,2023-11-29 22:49:36.235792,,,"{5013,7061,34420}"
3143725,DAPSA Buenos Aires Refinery,ARG,oil-and-gas-refining,-34.656059,-58.327087,trace_-58.327087_-34.656059,owner,DAPSA,100001014634.0,100.0,DAPSA,100001014634,100.0,real_property_refinery,2022-01-01 00:00:00,2022-12-31 00:00:00,2023-11-29 22:49:36.227585,,,{7061}
3143726,Pan American Energy Campana Refinery,ARG,oil-and-gas-refining,-34.16196,-58.94717,trace_-58.94717_-34.16196,owner,BC Energy Investments,100000000005.0,50.0,Pan American Energy,100000001764,100.0,real_property_refinery,2022-01-01 00:00:00,2022-12-31 00:00:00,2023-11-29 22:49:36.227608,,,"{2343,2344,7061}"
3143726,Pan American Energy Campana Refinery,ARG,oil-and-gas-refining,-34.16196,-58.94717,trace_-58.94717_-34.16196,owner,BP,100000001096.0,50.0,Pan American Energy,100000001764,100.0,real_property_refinery,2022-01-01 00:00:00,2022-12-31 00:00:00,2023-11-29 22:49:36.227631,,,"{2343,2344,7061}"
3143728,Refinor Campo Duran Refinery,ARG,oil-and-gas-refining,-22.205995,-63.662525,trace_-63.662525_-22.205995,owner,Refinor,100001014636.0,100.0,Refinor,100001014636,100.0,real_property_refinery,2022-01-01 00:00:00,2022-12-31 00:00:00,2023-11-29 22:49:36.227668,,,{7061}
3143727,Refisan S.A. San Lorenzo Refinery,ARG,oil-and-gas-refining,-32.727448,-60.742931,trace_-60.742931_-32.727448,owner,Refisan,100001014635.0,100.0,Refisan,100001014635,100.0,real_property_refinery,2022-01-01 00:00:00,2022-12-31 00:00:00,2023-11-29 22:49:36.227649,,,{7061}
3143729,Trafigura Bahia Blanca Refinery,ARG,oil-and-gas-refining,-38.746164,-62.299281,trace_-62.299281_-38.746164,owner,Trafigura,100001014637.0,100.0,Trafigura,100001014637,100.0,real_property_refinery,2022-01-01 00:00:00,2022-12-31 00:00:00,2023-11-29 22:49:36.227686,,,{7061}
3143724,YPF Lujan de Cuyo Refinery,ARG,oil-and-gas-refining,-33.063626,-68.975257,trace_-68.975257_-33.063626,owner,YPF,100000000013.0,100.0,YPF,100000000013,100.0,real_property_refinery,2022-01-01 00:00:00,2022-12-31 00:00:00,2023-11-29 22:49:36.227567,,,{7061}
3143730,YPF Plaza Huincul Refinery,ARG,oil-and-gas-refining,-38.928153,-69.181203,trace_-69.181203_-38.928153,owner,YPF,100000000013.0,100.0,YPF,100000000013,100.0,real_property_refinery,2022-01-01 00:00:00,2022-12-31 00:00:00,2023-11-29 22:49:36.227704,,,{7061}
3143723,YPF la Plata Refinery,ARG,oil-and-gas-refining,-34.883146,-57.912722,trace_-57.912722_-34.883146,owner,YPF,100000000013.0,100.0,YPF,100000000013,100.0,real_property_refinery,2022-01-01 00:00:00,2022-12-31 00:00:00,2023-11-29 22:49:36.227548,,,{7061}
3143734,Ampol Lytton Refinery,AUS,oil-and-gas-refining,-27.41307,153.15816,trace_153.15816_-27.41307,owner,Ampol,100001014638.0,100.0,Ampol,100001014638,100.0,real_property_refinery,2022-01-01 00:00:00,2022-12-31 00:00:00,2023-11-29 22:49:36.227783,,,{7061}
3143735,BP Bulwer Island Refinery,AUS,oil-and-gas-refining,-27.40301,153.1394,trace_153.1394_-27.40301,owner,BP,100000001096.0,100.0,BP,100000001096,100.0,real_property_refinery,2022-01-01 00:00:00,2022-12-31 00:00:00,2023-11-29 22:49:36.227803,,,"{5238,7061}"
3143731,BP Kwinana Refinery,AUS,oil-and-gas-refining,-32.22658,115.7639,trace_115.7639_-32.22658,owner,BP,100000001096.0,100.0,BP,100000001096,100.0,real_property_refinery,2022-01-01 00:00:00,2022-12-31 00:00:00,2023-11-29 22:49:36.227724,,,"{5238,7061}"
3143732,ExxonMobil Altona Refinery,AUS,oil-and-gas-refining,-37.85014,144.85036,trace_144.85036_-37.85014,owner,ExxonMobil,100001010714.0,100.0,ExxonMobil,100001010714,100.0,real_property_refinery,2022-01-01 00:00:00,2022-12-31 00:00:00,2023-11-29 22:49:36.227742,,,{7061}
3143733,Viva Geelong Refinery,AUS,oil-and-gas-refining,-38.078,144.38181,trace_144.38181_-38.078,owner,Vitol Holding II,100000000694.0,100.0,Vitol,100000001006,100.0,real_property_refinery,2022-01-01 00:00:00,2022-12-31 00:00:00,2023-11-29 22:49:36.227765,,,"{5404,5405,7061}"
3143736,OMV Schwechat Refinery,AUT,oil-and-gas-refining,48.14442,16.49968,trace_16.49968_48.14442,owner,OMV Group,100001014639.0,100.0,OMV Group,100001014639,100.0,real_property_refinery,2022-01-01 00:00:00,2022-12-31 00:00:00,2023-11-29 22:49:36.227821,,,{7061}
3143737,SOCAR Heydar Aliyev Baku Refinery,AZE,oil-and-gas-refining,40.406064,49.921828,trace_49.921828_40.406064,owner,Socar,100001010852.0,100.0,Socar,100001010852,100.0,real_property_refinery,2022-01-01 00:00:00,2022-12-31 00:00:00,2023-11-29 22:49:36.227841,,,"{7061,34399}"
3143743,ExxonMobil Antwerp Refinery,BEL,oil-and-gas-refining,51.25477,4.34045,trace_4.34045_51.25477,owner,ExxonMobil,100001010714.0,100.0,ExxonMobil,100001010714,100.0,real_property_refinery,2022-01-01 00:00:00,2022-12-31 00:00:00,2023-11-29 22:49:36.227974,,,{7061}
3143744,Gunvor BRC Antwerp Refinery,BEL,oil-and-gas-refining,51.333691,4.290398,trace_4.290398_51.333691,owner,Torbjörn Törnqvist,100001000415.0,85.7,Gunvor Group,100000000998,100.0,real_property_refinery,2022-01-01 00:00:00,2022-12-31 00:00:00,2023-11-29 22:49:36.228016,,,"{5650,7061}"
3143744,Gunvor BRC Antwerp Refinery,BEL,oil-and-gas-refining,51.333691,4.290398,trace_4.290398_51.333691,owner,Gunvor Employee Shareplan,100001000416.0,14.3,Gunvor Group,100000000998,100.0,real_property_refinery,2022-01-01 00:00:00,2022-12-31 00:00:00,2023-11-29 22:49:36.227996,,,"{5650,7061}"
3143742,Total Antwerp Refinery,BEL,oil-and-gas-refining,51.26557,4.32158,trace_4.32158_51.26557,owner,TotalEnergies,100000000387.0,100.0,TotalEnergies,100000000387,100.0,real_property_refinery,2022-01-01 00:00:00,2022-12-31 00:00:00,2023-11-29 22:49:36.227956,,,{7061}
3143745,Vitol Antwerp N.V. Refinery,BEL,oil-and-gas-refining,51.25078,4.37221,trace_4.37221_51.25078,owner,Vitol Holding II,100000000694.0,100.0,Vitol,100000001006,100.0,real_property_refinery,2022-01-01 00:00:00,2022-12-31 00:00:00,2023-11-29 22:49:36.228039,,,"{5404,5405,7061}"
3143739,Bashundhara Oil and Gas Company Refinery,BGD,oil-and-gas-refining,23.668397,90.442809,trace_90.442809_23.668397,owner,Bashundhara Oil & Gas,100001014641.0,100.0,Bashundhara Oil & Gas,100001014641,100.0,real_property_refinery,2022-01-01 00:00:00,2022-12-31 00:00:00,2023-11-29 22:49:36.227885,,,{7061}
3143740,Eastern Refining Limited Chittagong Refinery,BGD,oil-and-gas-refining,22.267162,91.802689,trace_91.802689_22.267162,owner,Eastern Refinery,100001014642.0,100.0,Eastern Refinery,100001014642,100.0,real_property_refinery,2022-01-01 00:00:00,2022-12-31 00:00:00,2023-11-29 22:49:36.227919,,,{7061}
3143764,LUKOIL Neftochim Burgas Refinery,BGR,oil-and-gas-refining,42.5403,27.32689,trace_27.32689_42.5403,owner,LUKOIL,100000000869.0,100.0,LUKOIL,100000000869,100.0,real_property_refinery,2022-01-01 00:00:00,2022-12-31 00:00:00,2023-11-29 22:49:36.228377,,,{7061}
3143738,Bahrain Petroleum Company Refinery,BHR,oil-and-gas-refining,26.116566,50.604604,trace_50.604604_26.116566,owner,Bahrain Petroleum,100001014640.0,100.0,Bahrain Petroleum,100001014640,100.0,real_property_refinery,2022-01-01 00:00:00,2022-12-31 00:00:00,2023-11-29 22:49:36.227865,,,{7061}
3143748,Nestro Brod Refinery,BIH,oil-and-gas-refining,45.130464,17.986134,trace_17.986134_45.130464,owner,Nestro,100001014644.0,100.0,Nestro,100001014644,100.0,real_property_refinery,2022-01-01 00:00:00,2022-12-31 00:00:00,2023-11-29 22:49:36.228093,,,{7061}
3143741,Slavneft Mozyr Refinery,BLR,oil-and-gas-refining,51.89131,29.32195,trace_29.32195_51.89131,owner,Slavneft,100001011200.0,100.0,Slavneft,100001011200,100.0,real_property_refinery,2022-01-01 00:00:00,2022-12-31 00:00:00,2023-11-29 22:49:36.227938,,,{7061}
3143746,YPFB Gualberto Villarael Cochabamba Refinery,BOL,oil-and-gas-refining,-17.453254,-66.123772,trace_-66.123772_-17.453254,owner,YPFB,100001014643.0,100.0,YPFB,100001014643,100.0,real_property_refinery,2022-01-01 00:00:00,2022-12-31 00:00:00,2023-11-29 22:49:36.228057,,,{7061}
3143747,YPFB Guillermo Elder Bell Santa Cruz Refinery,BOL,oil-and-gas-refining,-17.874775,-63.20236,trace_-63.20236_-17.874775,owner,YPFB,100001014643.0,100.0,YPFB,100001014643,100.0,real_property_refinery,2022-01-01 00:00:00,2022-12-31 00:00:00,2023-11-29 22:49:36.228076,,,{7061}
3143761,Petrobras LUBNOR Fortaleza Refinery,BRA,oil-and-gas-refining,-3.716366,-38.472299,trace_-38.472299_-3.716366,owner,Petrobras,100001010739.0,100.0,Petrobras,100001010739,100.0,real_property_refinery,2022-01-01 00:00:00,2022-12-31 00:00:00,2023-11-29 22:49:36.228328,,,{7061}
3143760,Petrobras Potiguar Clara Camarao (RPCC) Refinery,BRA,oil-and-gas-refining,-5.132304,-36.384394,trace_-36.384394_-5.132304,owner,Petrobras,100001010739.0,100.0,Petrobras,100001010739,100.0,real_property_refinery,2022-01-01 00:00:00,2022-12-31 00:00:00,2023-11-29 22:49:36.228312,,,{7061}
3143758,Petrobras RECAP (Capuava) Maua Refinery,BRA,oil-and-gas-refining,-23.643635,-46.477891,trace_-46.477891_-23.643635,owner,Petrobras,100001010739.0,100.0,Petrobras,100001010739,100.0,real_property_refinery,2022-01-01 00:00:00,2022-12-31 00:00:00,2023-11-29 22:49:36.228279,,,{7061}
3143751,Petrobras REDUC (Duque de Caxias) Refinery,BRA,oil-and-gas-refining,-22.718205,-43.266962,trace_-43.266962_-22.718205,owner,Petrobras,100001010739.0,100.0,Petrobras,100001010739,100.0,real_property_refinery,2022-01-01 00:00:00,2022-12-31 00:00:00,2023-11-29 22:49:36.22815,,,{7061}
3143754,Petrobras REFAP Canoas Refinery,BRA,oil-and-gas-refining,-29.873524,-51.159057,trace_-51.159057_-29.873524,owner,Petrobras,100001010739.0,100.0,Petrobras,100001010739,100.0,real_property_refinery,2022-01-01 00:00:00,2022-12-31 00:00:00,2023-11-29 22:49:36.228206,,,{7061}
3143756,Petrobras REGAP Refinery,BRA,oil-and-gas-refining,-19.973942,-44.096166,trace_-44.096166_-19.973942,owner,Petrobras,100001010739.0,100.0,Petrobras,100001010739,100.0,real_property_refinery,2022-01-01 00:00:00,2022-12-31 00:00:00,2023-11-29 22:49:36.228242,,,{7061}
3143759,Petrobras REMAN (Issac Sabba) Manaus Refinery,BRA,oil-and-gas-refining,-3.145973,-59.953955,trace_-59.953955_-3.145973,owner,Petrobras,100001010739.0,100.0,Petrobras,100001010739,100.0,real_property_refinery,2022-01-01 00:00:00,2022-12-31 00:00:00,2023-11-29 22:49:36.228296,,,{7061}
3143753,Petrobras REPAR (Pres. Getulio Vargas) Araucaria Refinery,BRA,oil-and-gas-refining,-25.5676,-49.3582,trace_-49.3582_-25.5676,owner,Petrobras,100001010739.0,100.0,Petrobras,100001010739,100.0,real_property_refinery,2022-01-01 00:00:00,2022-12-31 00:00:00,2023-11-29 22:49:36.228188,,,{7061}
3143749,Petrobras REPLAN Paulinia Refinery,BRA,oil-and-gas-refining,-22.728635,-47.135804,trace_-47.135804_-22.728635,owner,Petrobras,100001010739.0,100.0,Petrobras,100001010739,100.0,real_property_refinery,2022-01-01 00:00:00,2022-12-31 00:00:00,2023-11-29 22:49:36.228112,,,{7061}
3143752,Petrobras REVAP (Henrique Lage) Sao Jose dos Campos Refinery,BRA,oil-and-gas-refining,-23.190808,-45.820774,trace_-45.820774_-23.190808,owner,Petrobras,100001010739.0,100.0,Petrobras,100001010739,100.0,real_property_refinery,2022-01-01 00:00:00,2022-12-31 00:00:00,2023-11-29 22:49:36.228169,,,{7061}
3143750,Petrobras RLAM (Landulpho Alves) Sao Francisco do Conde Refinery,BRA,oil-and-gas-refining,-12.70753,-38.573442,trace_-38.573442_-12.70753,owner,Petrobras,100001010739.0,100.0,Petrobras,100001010739,100.0,real_property_refinery,2022-01-01 00:00:00,2022-12-31 00:00:00,2023-11-29 22:49:36.228131,,,{7061}
3143757,Petrobras RNEST Refinery,BRA,oil-and-gas-refining,-8.379409,-35.017878,trace_-35.017878_-8.379409,owner,Petrobras,100001010739.0,100.0,Petrobras,100001010739,100.0,real_property_refinery,2022-01-01 00:00:00,2022-12-31 00:00:00,2023-11-29 22:49:36.22826,,,{7061}
3143755,Petrobras RPBC Cubatao Refinery,BRA,oil-and-gas-refining,-23.871801,-46.435725,trace_-46.435725_-23.871801,owner,Petrobras,100001010739.0,100.0,Petrobras,100001010739,100.0,real_property_refinery,2022-01-01 00:00:00,2022-12-31 00:00:00,2023-11-29 22:49:36.228224,,,{7061}
3143762,BSP Brunei Refinery,BRN,oil-and-gas-refining,4.61965,114.3433,trace_114.3433_4.61965,owner,,,,Brunei Shell Petroleum,100001014645,100.0,real_property_refinery,2022-01-01 00:00:00,2022-12-31 00:00:00,2023-11-29 22:49:36.228343,,,{7061}
3143763,Hengyi Pulau Muara Besar Refinery,BRN,oil-and-gas-refining,4.998264,115.118414,trace_115.118414_4.998264,owner,Zhejiang HENGYI Group,100000129153.0,100.0,Zhejiang HENGYI Group,100000129153,100.0,real_property_refinery,2022-01-01 00:00:00,2022-12-31 00:00:00,2023-11-29 22:49:36.228361,,,"{6119,7061}"
3143769,Federated Co-operatives Limited Refinery Complex,CAN,oil-and-gas-refining,50.485712,-104.576561,trace_-104.576561_50.485712,owner,Federated Co-operatives,100001014649.0,100.0,Federated Co-operatives,100001014649,100.0,real_property_refinery,2022-01-01 00:00:00,2022-12-31 00:00:00,2023-11-29 22:49:36.228469,,,{7061}
3143780,Gibson Energy Moose Jaw Refinery,CAN,oil-and-gas-refining,50.38854,-105.519627,trace_-105.519627_50.38854,owner,Gibson Energy,100001014652.0,100.0,Gibson Energy,100001014652,100.0,real_property_refinery,2022-01-01 00:00:00,2022-12-31 00:00:00,2023-11-29 22:49:36.228595,,,{7061}
3143773,Imperial Oil Nanticoke Refinery,CAN,oil-and-gas-refining,42.83497,-80.04841,trace_-80.04841_42.83497,owner,ExxonMobil,100001010714.0,100.0,ExxonMobil,100001010714,100.0,real_property_refinery,2022-01-01 00:00:00,2022-12-31 00:00:00,2023-11-29 22:49:36.2285,,,{7061}
3143772,Imperial Oil Sarnia Refinery,CAN,oil-and-gas-refining,42.95186,-82.416,trace_-82.416_42.95186,owner,ExxonMobil,100001010714.0,100.0,ExxonMobil,100001010714,100.0,real_property_refinery,2022-01-01 00:00:00,2022-12-31 00:00:00,2023-11-29 22:49:36.228485,,,{7061}
3143768,Imperial Oil Strathcona Refinery,CAN,oil-and-gas-refining,53.72841,-113.178,trace_-113.178_53.72841,owner,ExxonMobil,100001010714.0,100.0,ExxonMobil,100001010714,100.0,real_property_refinery,2022-01-01 00:00:00,2022-12-31 00:00:00,2023-11-29 22:49:36.228452,,,{7061}
3143766,Irving Oil Saint John Refinery,CAN,oil-and-gas-refining,45.28293,-66.01169,trace_-66.01169_45.28293,owner,Irving Oil,100001014647.0,100.0,Irving Oil,100001014647,100.0,real_property_refinery,2022-01-01 00:00:00,2022-12-31 00:00:00,2023-11-29 22:49:36.228421,,,{7061}
3143774,North Atlantic Refining Come by Chance,CAN,oil-and-gas-refining,47.7982,-53.99336,trace_-53.99336_47.7982,owner,North Atlantic Refining,100001014650.0,100.0,North Atlantic Refining,100001014650,100.0,real_property_refinery,2022-01-01 00:00:00,2022-12-31 00:00:00,2023-11-29 22:49:36.228516,,,{7061}
3143776,North West Redwater Partnership Sturgeon Refinery,CAN,oil-and-gas-refining,53.84277,-113.121331,trace_-113.121331_53.84277,owner,Canadian Natural Resources,100000000105.0,100.0,Canadian Natural Resources,100000000105,100.0,real_property_refinery,2022-01-01 00:00:00,2022-12-31 00:00:00,2023-11-29 22:49:36.228548,,,{7061}
3143778,Parkland Burnaby Refinery,CAN,oil-and-gas-refining,49.2936,-122.98698,trace_-122.98698_49.2936,owner,Parkland Refining,100001014651.0,100.0,Parkland Refining,100001014651,100.0,real_property_refinery,2022-01-01 00:00:00,2022-12-31 00:00:00,2023-11-29 22:49:36.228579,,,{7061}
3143781,Petro-Canada Mississauga Lubricants Refinery,CAN,oil-and-gas-refining,43.498027,-79.61027,trace_-79.61027_43.498027,owner,Petro-Canada,100001014653.0,100.0,Petro-Canada,100001014653,100.0,real_property_refinery,2022-01-01 00:00:00,2022-12-31 00:00:00,2023-11-29 22:49:36.228612,,,{7061}
3143777,"Shell Corunna, Sarnia Refinery",CAN,oil-and-gas-refining,42.93066,-82.43941,trace_-82.43941_42.93066,owner,Shell,100000000746.0,100.0,Shell,100000000746,100.0,real_property_refinery,2022-01-01 00:00:00,2022-12-31 00:00:00,2023-11-29 22:49:36.228564,,,{7061}
3143775,Shell Scotford Refinery,CAN,oil-and-gas-refining,53.80137,-113.08992,trace_-113.08992_53.80137,owner,Shell,100000000746.0,100.0,Shell,100000000746,100.0,real_property_refinery,2022-01-01 00:00:00,2022-12-31 00:00:00,2023-11-29 22:49:36.228532,,,{7061}
3143782,Tidewater Prince George Refinery,CAN,oil-and-gas-refining,53.927496,-122.69836,trace_-122.69836_53.927496,owner,Tidewater Midstream,100001014654.0,100.0,Tidewater Midstream,100001014654,100.0,real_property_refinery,2022-01-01 00:00:00,2022-12-31 00:00:00,2023-11-29 22:49:36.228628,,,{7061}
3143767,Valero Jean-Gaulin Refinery,CAN,oil-and-gas-refining,46.75944,-71.19366,trace_-71.19366_46.75944,owner,Valero,100001014648.0,100.0,Valero,100001014648,100.0,real_property_refinery,2022-01-01 00:00:00,2022-12-31 00:00:00,2023-11-29 22:49:36.228437,,,{7061}
3144131,Varo Cressier Refinery,CHE,oil-and-gas-refining,47.041477,7.036333,trace_7.036333_47.041477,owner,Varo,100001014682.0,100.0,Varo,100001014682,100.0,real_property_refinery,2022-01-01 00:00:00,2022-12-31 00:00:00,2023-11-29 22:49:36.235332,,,"{7061,34407}"
3143783,Empresa Nacional de Petroleo Bio-Bio Refinery,CHL,oil-and-gas-refining,-36.77918,-73.12513,trace_-73.12513_-36.77918,owner,ENAP,100001014655.0,100.0,ENAP,100001014655,100.0,real_property_refinery,2022-01-01 00:00:00,2022-12-31 00:00:00,2023-11-29 22:49:36.228646,,,"{7061,34400}"
3143784,Empresa Nacional de Petroleo Concon Refinery,CHL,oil-and-gas-refining,-32.92852,-71.50113,trace_-71.50113_-32.92852,owner,ENAP,100001014655.0,100.0,ENAP,100001014655,100.0,real_property_refinery,2022-01-01 00:00:00,2022-12-31 00:00:00,2023-11-29 22:49:36.228664,,,"{7061,34400}"
3143785,Empresa Nacional de Petroleo Gregorio Refinery,CHL,oil-and-gas-refining,-52.623812,-70.202925,trace_-70.202925_-52.623812,owner,ENAP,100001014655.0,100.0,ENAP,100001014655,100.0,real_property_refinery,2022-01-01 00:00:00,2022-12-31 00:00:00,2023-11-29 22:49:36.228682,,,"{7061,34400}"
3144181,CNOOC Dongfang Petrochemical Hainan Refinery,CHN,oil-and-gas-refining,19.068528,108.631871,trace_108.631871_19.068528,owner,CNOOC,100001010708.0,100.0,CNOOC,100001010708,100.0,real_property_refinery,2022-01-01 00:00:00,2022-12-31 00:00:00,2023-11-29 22:49:36.236322,,,{7061}
3143820,CNOOC Huizhou Refinery,CHN,oil-and-gas-refining,22.752241,114.590557,trace_114.590557_22.752241,owner,CNOOC,100001010708.0,100.0,CNOOC,100001010708,100.0,real_property_refinery,2022-01-01 00:00:00,2022-12-31 00:00:00,2023-11-29 22:49:36.229383,,,{7061}
3144209,CNOOC Taizhou Petrochemical Refinery,CHN,oil-and-gas-refining,32.306582,119.859776,trace_119.859776_32.306582,owner,CNOOC,100001010708.0,100.0,CNOOC,100001010708,100.0,real_property_refinery,2022-01-01 00:00:00,2022-12-31 00:00:00,2023-11-29 22:49:36.237382,,,{7061}
3143832,CNOOC Zhejiang Ningbo Daxie Zhoushan Refinery,CHN,oil-and-gas-refining,29.932164,121.947792,trace_121.947792_29.932164,owner,CNOOC,100001010708.0,100.0,CNOOC,100001010708,100.0,real_property_refinery,2022-01-01 00:00:00,2022-12-31 00:00:00,2023-11-29 22:49:36.229614,,,{7061}
3144247,Changchun Xinda Petroleum Group Nongan Petrochemical Refinery,CHN,oil-and-gas-refining,44.436398,125.140132,trace_125.140132_44.436398,owner,other,100000001753.0,1.63,Changchun Xinda Petroleum Group Nongan Petrochemical,100000126233,100.0,real_property_refinery,2022-01-01 00:00:00,2022-12-31 00:00:00,2023-11-29 22:49:36.238601,,,"{6119,7061}"
3144247,Changchun Xinda Petroleum Group Nongan Petrochemical Refinery,CHN,oil-and-gas-refining,44.436398,125.140132,trace_125.140132_44.436398,owner,Changchun Xinda Petroleum Group,100000127546.0,98.37,Changchun Xinda Petroleum Group Nongan Petrochemical,100000126233,100.0,real_property_refinery,2022-01-01 00:00:00,2022-12-31 00:00:00,2023-11-29 22:49:36.238618,,,"{6119,7061}"
3143831,Changyi Weifang Shandong Refinery,CHN,oil-and-gas-refining,36.846469,119.36064,trace_119.36064_36.846469,owner,Sinochem Holdings Corporation,100000125246.0,30.0,Shandong Changyi Petrochemical,100000126947,100.0,real_property_refinery,2022-01-01 00:00:00,2022-12-31 00:00:00,2023-11-29 22:49:36.229598,,,"{6119,7061}"
3143831,Changyi Weifang Shandong Refinery,CHN,oil-and-gas-refining,36.846469,119.36064,trace_119.36064_36.846469,owner,China Chengtong Holdings Group,100001000473.0,40.0,Shandong Changyi Petrochemical,100000126947,100.0,real_property_refinery,2022-01-01 00:00:00,2022-12-31 00:00:00,2023-11-29 22:49:36.229562,,,"{6119,7061}"
3143831,Changyi Weifang Shandong Refinery,CHN,oil-and-gas-refining,36.846469,119.36064,trace_119.36064_36.846469,owner,China Guoxin Holding,100001000475.0,30.0,Shandong Changyi Petrochemical,100000126947,100.0,real_property_refinery,2022-01-01 00:00:00,2022-12-31 00:00:00,2023-11-29 22:49:36.22958,,,"{6119,7061}"
3144255,China Offshore Oil Zhanjiang Fuel Oil Refinery,CHN,oil-and-gas-refining,21.184564,110.35721,trace_110.35721_21.184564,owner,China National Offshore Oil,100000000172.0,12.0,China Offshore Oil Zhanjiang Fuel Oil,100000126230,100.0,real_property_refinery,2022-01-01 00:00:00,2022-12-31 00:00:00,2023-11-29 22:49:36.238847,,,"{6119,7061}"
3144255,China Offshore Oil Zhanjiang Fuel Oil Refinery,CHN,oil-and-gas-refining,21.184564,110.35721,trace_110.35721_21.184564,owner,Guangdong Yuexiang Tianyuan Holding,100000128615.0,88.0,China Offshore Oil Zhanjiang Fuel Oil,100000126230,100.0,real_property_refinery,2022-01-01 00:00:00,2022-12-31 00:00:00,2023-11-29 22:49:36.238831,,,"{6119,7061}"
3144237,China Overseas Energy & Technology (Shandong) Refinery,CHN,oil-and-gas-refining,35.150434,119.369313,trace_119.369313_35.150434,owner,persons,100000123261.0,20.0,China Overseas Energy&Technology (Shandong),100000126482,100.0,real_property_refinery,2022-01-01 00:00:00,2022-12-31 00:00:00,2023-11-29 22:49:36.238274,,,"{6119,7061}"
3144237,China Overseas Energy & Technology (Shandong) Refinery,CHN,oil-and-gas-refining,35.150434,119.369313,trace_119.369313_35.150434,owner,Qingdao West Coast New Area Integration Holding Group,100000125277.0,10.2,China Overseas Energy&Technology (Shandong),100000126482,100.0,real_property_refinery,2022-01-01 00:00:00,2022-12-31 00:00:00,2023-11-29 22:49:36.238308,,,"{6119,7061}"
3144237,China Overseas Energy & Technology (Shandong) Refinery,CHN,oil-and-gas-refining,35.150434,119.369313,trace_119.369313_35.150434,owner,State-owned Assets Management Bureau of Qingdao West Coast New Area,100000126090.0,9.8,China Overseas Energy&Technology (Shandong),100000126482,100.0,real_property_refinery,2022-01-01 00:00:00,2022-12-31 00:00:00,2023-11-29 22:49:36.238291,,,"{6119,7061}"
3144237,China Overseas Energy & Technology (Shandong) Refinery,CHN,oil-and-gas-refining,35.150434,119.369313,trace_119.369313_35.150434,owner,China Overseas Holding Group,100000127650.0,30.0,China Overseas Energy&Technology (Shandong),100000126482,100.0,real_property_refinery,2022-01-01 00:00:00,2022-12-31 00:00:00,2023-11-29 22:49:36.238253,,,"{6119,7061}"
3144237,China Overseas Energy & Technology (Shandong) Refinery,CHN,oil-and-gas-refining,35.150434,119.369313,trace_119.369313_35.150434,owner,Dongying LIZHIYUAN Trading,100000128294.0,10.0,China Overseas Energy&Technology (Shandong),100000126482,100.0,real_property_refinery,2022-01-01 00:00:00,2022-12-31 00:00:00,2023-11-29 22:49:36.238324,,,"{6119,7061}"
3144244,Chongqing Longhai Petroleum and Chemical Refinery,CHN,oil-and-gas-refining,29.699659,107.132865,trace_107.132865_29.699659,owner,Chongqing Longhai Petroleum and Chemical,100000126209.0,100.0,Chongqing Longhai Petroleum and Chemical,100000126209,100.0,real_property_refinery,2022-01-01 00:00:00,2022-12-31 00:00:00,2023-11-29 22:49:36.238472,,,"{6119,7061}"
3144238,Dalian Jinyuan Petroleum & Chemical Refinery,CHN,oil-and-gas-refining,39.410048,121.717844,trace_121.717844_39.410048,owner,MINGYUAN HOLDINGS Group,100000124550.0,100.0,Dalian Jinyuan PETROLEUM&CHEMICAL,100000126850,100.0,real_property_refinery,2022-01-01 00:00:00,2022-12-31 00:00:00,2023-11-29 22:49:36.23834,,,"{6119,7061}"
3144239,Daqing Zhonglan Petrochemical Refinery,CHN,oil-and-gas-refining,46.535123,125.09547,trace_125.09547_46.535123,owner,other,100000001753.0,0.710801,Daqing Zhonglan Petrochemical,100000127097,100.0,real_property_refinery,2022-01-01 00:00:00,2022-12-31 00:00:00,2023-11-29 22:49:36.238374,,,"{6119,7061}"
3144239,Daqing Zhonglan Petrochemical Refinery,CHN,oil-and-gas-refining,46.535123,125.09547,trace_125.09547_46.535123,owner,Sinochem Holdings Corporation,100000125246.0,96.659199,Daqing Zhonglan Petrochemical,100000127097,100.0,real_property_refinery,2022-01-01 00:00:00,2022-12-31 00:00:00,2023-11-29 22:49:36.238358,,,"{6119,7061}"
3144196,Dongfang Hualong Dongying Refinery,CHN,oil-and-gas-refining,37.076461,118.391326,trace_118.391326_37.076461,owner,Shandong Dongfang Hualong Industry and Trading Group,100000126626.0,100.0,Shandong Dongfang Hualong Industry and Trading Group,100000126626,100.0,real_property_refinery,2022-01-01 00:00:00,2022-12-31 00:00:00,2023-11-29 22:49:36.236858,,,"{6119,7061}"
3143833,Dongming Heze Shandong Refinery,CHN,oil-and-gas-refining,35.357694,115.134053,trace_115.134053_35.357694,owner,Shandong Dongming Petrochemical Group,100001014658.0,100.0,Shandong Dongming Petrochemical Group,100001014658,100.0,real_property_refinery,2022-01-01 00:00:00,2022-12-31 00:00:00,2023-11-29 22:49:36.229631,,,{7061}
3144241,Dongying Aoxing Petrochemical Refinery,CHN,oil-and-gas-refining,37.009937,118.37918,trace_118.37918_37.009937,owner,Dongying Aoxing Petrochemical,100000126158.0,100.0,Dongying Aoxing Petrochemical,100000126158,100.0,real_property_refinery,2022-01-01 00:00:00,2022-12-31 00:00:00,2023-11-29 22:49:36.238423,,,"{6119,7061}"
3144228,Eastar Holding Group Refinery Petrochemical Branch Refinery,CHN,oil-and-gas-refining,37.406794,118.885423,trace_118.885423_37.406794,owner,other,100000001753.0,0.0012251530056884,Eastar Holding Group Co Ltd Petrochemical Branch,100000127233,100.0,real_property_refinery,2022-01-01 00:00:00,2022-12-31 00:00:00,2023-11-29 22:49:36.237857,,,"{6119,7061}"
3144228,Eastar Holding Group Refinery Petrochemical Branch Refinery,CHN,oil-and-gas-refining,37.406794,118.885423,trace_118.885423_37.406794,owner,Dongying Kenli District Finance Development Group,100000124409.0,2.19968978126976,Eastar Holding Group Co Ltd Petrochemical Branch,100000127233,100.0,real_property_refinery,2022-01-01 00:00:00,2022-12-31 00:00:00,2023-11-29 22:49:36.237876,,,"{6119,7061}"
3144228,Eastar Holding Group Refinery Petrochemical Branch Refinery,CHN,oil-and-gas-refining,37.406794,118.885423,trace_118.885423_37.406794,owner,Hefei Xingtai Financial Holdings (Group),100000125122.0,2.55841344,Eastar Holding Group Co Ltd Petrochemical Branch,100000127233,100.0,real_property_refinery,2022-01-01 00:00:00,2022-12-31 00:00:00,2023-11-29 22:49:36.237999,,,"{6119,7061}"
3144228,Eastar Holding Group Refinery Petrochemical Branch Refinery,CHN,oil-and-gas-refining,37.406794,118.885423,trace_118.885423_37.406794,owner,Shandong Caijin Investment,100000125347.0,0.2366225125485869,Eastar Holding Group Co Ltd Petrochemical Branch,100000127233,100.0,real_property_refinery,2022-01-01 00:00:00,2022-12-31 00:00:00,2023-11-29 22:49:36.237932,,,"{6119,7061}"
3144228,Eastar Holding Group Refinery Petrochemical Branch Refinery,CHN,oil-and-gas-refining,37.406794,118.885423,trace_118.885423_37.406794,owner,Yunnan Provincial Department of Finance,100000125648.0,0.1670663189575162,Eastar Holding Group Co Ltd Petrochemical Branch,100000127233,100.0,real_property_refinery,2022-01-01 00:00:00,2022-12-31 00:00:00,2023-11-29 22:49:36.237823,,,"{6119,7061}"
3144228,Eastar Holding Group Refinery Petrochemical Branch Refinery,CHN,oil-and-gas-refining,37.406794,118.885423,trace_118.885423_37.406794,owner,Shandong Longying Petrochemical,100000128287.0,66.44,Eastar Holding Group Co Ltd Petrochemical Branch,100000127233,100.0,real_property_refinery,2022-01-01 00:00:00,2022-12-31 00:00:00,2023-11-29 22:49:36.237772,,,"{6119,7061}"
3144228,Eastar Holding Group Refinery Petrochemical Branch Refinery,CHN,oil-and-gas-refining,37.406794,118.885423,trace_118.885423_37.406794,owner,Dongying Finance Investment Group,100000129011.0,0.0914626586119979,Eastar Holding Group Co Ltd Petrochemical Branch,100000127233,100.0,real_property_refinery,2022-01-01 00:00:00,2022-12-31 00:00:00,2023-11-29 22:49:36.237892,,,"{6119,7061}"
3144228,Eastar Holding Group Refinery Petrochemical Branch Refinery,CHN,oil-and-gas-refining,37.406794,118.885423,trace_118.885423_37.406794,owner,Bank of Tianjin,100000129046.0,1.7753037696,Eastar Holding Group Co Ltd Petrochemical Branch,100000127233,100.0,real_property_refinery,2022-01-01 00:00:00,2022-12-31 00:00:00,2023-11-29 22:49:36.237966,,,"{6119,7061}"
3144228,Eastar Holding Group Refinery Petrochemical Branch Refinery,CHN,oil-and-gas-refining,37.406794,118.885423,trace_118.885423_37.406794,owner,Jinyuan Securities,100000129088.0,2.322650277504,Eastar Holding Group Co Ltd Petrochemical Branch,100000127233,100.0,real_property_refinery,2022-01-01 00:00:00,2022-12-31 00:00:00,2023-11-29 22:49:36.237789,,,"{6119,7061}"
3144228,Eastar Holding Group Refinery Petrochemical Branch Refinery,CHN,oil-and-gas-refining,37.406794,118.885423,trace_118.885423_37.406794,owner,Zhongtai SECURITIES,100000129091.0,0.3549337688228803,Eastar Holding Group Co Ltd Petrochemical Branch,100000127233,100.0,real_property_refinery,2022-01-01 00:00:00,2022-12-31 00:00:00,2023-11-29 22:49:36.237909,,,"{6119,7061}"
3144228,Eastar Holding Group Refinery Petrochemical Branch Refinery,CHN,oil-and-gas-refining,37.406794,118.885423,trace_118.885423_37.406794,owner,Shanghai Noah Investment Management,100000129122.0,0.2332572732457486,Eastar Holding Group Co Ltd Petrochemical Branch,100000127233,100.0,real_property_refinery,2022-01-01 00:00:00,2022-12-31 00:00:00,2023-11-29 22:49:36.237949,,,"{6119,7061}"
3144228,Eastar Holding Group Refinery Petrochemical Branch Refinery,CHN,oil-and-gas-refining,37.406794,118.885423,trace_118.885423_37.406794,owner,Yunnan Industrial Investment Group,100000129173.0,0.5556625768526988,Eastar Holding Group Co Ltd Petrochemical Branch,100000127233,100.0,real_property_refinery,2022-01-01 00:00:00,2022-12-31 00:00:00,2023-11-29 22:49:36.23784,,,"{6119,7061}"
3144228,Eastar Holding Group Refinery Petrochemical Branch Refinery,CHN,oil-and-gas-refining,37.406794,118.885423,trace_118.885423_37.406794,owner,Yunnan Dianzhong New Area Management Committee,100000130366.0,1.503596870617646,Eastar Holding Group Co Ltd Petrochemical Branch,100000127233,100.0,real_property_refinery,2022-01-01 00:00:00,2022-12-31 00:00:00,2023-11-29 22:49:36.237806,,,"{6119,7061}"
3144228,Eastar Holding Group Refinery Petrochemical Branch Refinery,CHN,oil-and-gas-refining,37.406794,118.885423,trace_118.885423_37.406794,owner,China Construction Bank,100001000437.0,5.19435456,Eastar Holding Group Co Ltd Petrochemical Branch,100000127233,100.0,real_property_refinery,2022-01-01 00:00:00,2022-12-31 00:00:00,2023-11-29 22:49:36.237982,,,"{6119,7061}"
3144176,Fuhaichuang Refinery,CHN,oil-and-gas-refining,23.796421,117.626971,trace_117.626971_23.796421,owner,other,100000001753.0,16.62,Dragon Aromatics (Zhangzhou),100000121687,100.0,real_property_refinery,2022-01-01 00:00:00,2022-12-31 00:00:00,2023-11-29 22:49:36.236236,,,"{6119,7061}"
3144176,Fuhaichuang Refinery,CHN,oil-and-gas-refining,23.796421,117.626971,trace_117.626971_23.796421,owner,Bank of China,100000124428.0,6.15,Dragon Aromatics (Zhangzhou),100000121687,100.0,real_property_refinery,2022-01-01 00:00:00,2022-12-31 00:00:00,2023-11-29 22:49:36.236251,,,"{6119,7061}"
3144176,Fuhaichuang Refinery,CHN,oil-and-gas-refining,23.796421,117.626971,trace_117.626971_23.796421,owner,Zhangzhou Jiulongjiang Group,100000124826.0,37.8427,Dragon Aromatics (Zhangzhou),100000121687,100.0,real_property_refinery,2022-01-01 00:00:00,2022-12-31 00:00:00,2023-11-29 22:49:36.236093,,,"{6119,7061}"
3144176,Fuhaichuang Refinery,CHN,oil-and-gas-refining,23.796421,117.626971,trace_117.626971_23.796421,owner,Fujian Gulei Petrochemical Equity Investment Partnership,100000125186.0,4.416301012500001,Dragon Aromatics (Zhangzhou),100000121687,100.0,real_property_refinery,2022-01-01 00:00:00,2022-12-31 00:00:00,2023-11-29 22:49:36.23622,,,"{6119,7061}"
3144176,Fuhaichuang Refinery,CHN,oil-and-gas-refining,23.796421,117.626971,trace_117.626971_23.796421,owner,Fujian Energy Petrochemical Group,100000125187.0,17.4667422768075,Dragon Aromatics (Zhangzhou),100000121687,100.0,real_property_refinery,2022-01-01 00:00:00,2022-12-31 00:00:00,2023-11-29 22:49:36.236184,,,"{6119,7061}"
3144176,Fuhaichuang Refinery,CHN,oil-and-gas-refining,23.796421,117.626971,trace_117.626971_23.796421,owner,Funeng Fuhua (Pingtan) Equity Investment Partnership,100000125188.0,5.294193710692501,Dragon Aromatics (Zhangzhou),100000121687,100.0,real_property_refinery,2022-01-01 00:00:00,2022-12-31 00:00:00,2023-11-29 22:49:36.236203,,,"{6119,7061}"
3143790,Fushun Petrochemical Refinery,CHN,oil-and-gas-refining,41.83474,124.03889,trace_124.03889_41.83474,owner,PetroChina,100000000245.0,100.0,PetroChina,100000000245,100.0,real_property_refinery,2022-01-01 00:00:00,2022-12-31 00:00:00,2023-11-29 22:49:36.228835,,,{7061}
3144256,Gaoqing Hongyuan Petrochemical Refinery,CHN,oil-and-gas-refining,37.178669,117.900082,trace_117.900082_37.178669,owner,Gaoqing Hongyuan Petrochemical,100000126126.0,100.0,Gaoqing Hongyuan Petrochemical,100000126126,100.0,real_property_refinery,2022-01-01 00:00:00,2022-12-31 00:00:00,2023-11-29 22:49:36.238863,,,"{6119,7061}"
3144219,Haiguo Longyou Refinery,CHN,oil-and-gas-refining,46.324427,124.758936,trace_124.758936_46.324427,owner,Haiguo Longyou Petrochemical,100001014770.0,100.0,Haiguo Longyou Petrochemical,100001014770,100.0,real_property_refinery,2022-01-01 00:00:00,2022-12-31 00:00:00,2023-11-29 22:49:36.237545,,,{7061}
3144191,Haihua Weifang Refinery,CHN,oil-and-gas-refining,37.130913,119.033398,trace_119.033398_37.130913,owner,China Nationasl Salt Industry,100000123314.0,30.0,Shandong Haihua Group,100000123785,100.0,real_property_refinery,2022-01-01 00:00:00,2022-12-31 00:00:00,2023-11-29 22:49:36.2367,,,"{6119,7061}"
3144191,Haihua Weifang Refinery,CHN,oil-and-gas-refining,37.130913,119.033398,trace_119.033398_37.130913,owner,Weifang Investment Group,100000123455.0,55.010000000000005,Shandong Haihua Group,100000123785,100.0,real_property_refinery,2022-01-01 00:00:00,2022-12-31 00:00:00,2023-11-29 22:49:36.236684,,,"{6119,7061}"
3144191,Haihua Weifang Refinery,CHN,oil-and-gas-refining,37.130913,119.033398,trace_119.033398_37.130913,owner,Sinochem Holdings Corporation,100000125246.0,3.32778,Shandong Haihua Group,100000123785,100.0,real_property_refinery,2022-01-01 00:00:00,2022-12-31 00:00:00,2023-11-29 22:49:36.236746,,,"{6119,7061}"
3144191,Haihua Weifang Refinery,CHN,oil-and-gas-refining,37.130913,119.033398,trace_119.033398_37.130913,owner,China Chengtong Holdings Group,100001000473.0,4.4370400000000005,Shandong Haihua Group,100000123785,100.0,real_property_refinery,2022-01-01 00:00:00,2022-12-31 00:00:00,2023-11-29 22:49:36.236715,,,"{6119,7061}"
3144191,Haihua Weifang Refinery,CHN,oil-and-gas-refining,37.130913,119.033398,trace_119.033398_37.130913,owner,China Guoxin Holding,100001000475.0,3.32778,Shandong Haihua Group,100000123785,100.0,real_property_refinery,2022-01-01 00:00:00,2022-12-31 00:00:00,2023-11-29 22:49:36.236731,,,"{6119,7061}"
3144185,Haike Petrochemical Dongying Refinery,CHN,oil-and-gas-refining,37.424659,118.366522,trace_118.366522_37.424659,owner,other,100000001753.0,4.32676432636932,Shandong Haike Petrochemical Limited,100000127384,100.0,real_property_refinery,2022-01-01 00:00:00,2022-12-31 00:00:00,2023-11-29 22:49:36.236458,,,"{6119,7061}"
3144185,Haike Petrochemical Dongying Refinery,CHN,oil-and-gas-refining,37.424659,118.366522,trace_118.366522_37.424659,owner,persons,100000123261.0,1.6761766458866352,Shandong Haike Petrochemical Limited,100000127384,100.0,real_property_refinery,2022-01-01 00:00:00,2022-12-31 00:00:00,2023-11-29 22:49:36.23644,,,"{6119,7061}"
3144185,Haike Petrochemical Dongying Refinery,CHN,oil-and-gas-refining,37.424659,118.366522,trace_118.366522_37.424659,owner,Dongying Shengtewei Energy Investment Center,100000128888.0,26.516278623,Shandong Haike Petrochemical Limited,100000127384,100.0,real_property_refinery,2022-01-01 00:00:00,2022-12-31 00:00:00,2023-11-29 22:49:36.236391,,,"{6119,7061}"
3144185,Haike Petrochemical Dongying Refinery,CHN,oil-and-gas-refining,37.424659,118.366522,trace_118.366522_37.424659,owner,Dongying Didawei Enterprise Management Consulting Center,100000128889.0,20.1063334734,Shandong Haike Petrochemical Limited,100000127384,100.0,real_property_refinery,2022-01-01 00:00:00,2022-12-31 00:00:00,2023-11-29 22:49:36.236408,,,"{6119,7061}"
3144185,Haike Petrochemical Dongying Refinery,CHN,oil-and-gas-refining,37.424659,118.366522,trace_118.366522_37.424659,owner,Dongying Ward Investment,100000129012.0,7.127272124526365,Shandong Haike Petrochemical Limited,100000127384,100.0,real_property_refinery,2022-01-01 00:00:00,2022-12-31 00:00:00,2023-11-29 22:49:36.236424,,,"{6119,7061}"
3144185,Haike Petrochemical Dongying Refinery,CHN,oil-and-gas-refining,37.424659,118.366522,trace_118.366522_37.424659,owner,Haike International Holdings,100000130533.0,8.98,Shandong Haike Petrochemical Limited,100000127384,100.0,real_property_refinery,2022-01-01 00:00:00,2022-12-31 00:00:00,2023-11-29 22:49:36.236475,,,"{6119,7061}"
3144187,Haike Ruilin Dongying Refinery,CHN,oil-and-gas-refining,38.056643,118.869595,trace_118.869595_38.056643,owner,other,100000001753.0,4.7536413166,Dongying Haike Ruilin Chemical Industry Limited,100000126102,100.0,real_property_refinery,2022-01-01 00:00:00,2022-12-31 00:00:00,2023-11-29 22:49:36.236572,,,"{6119,7061}"
3144187,Haike Ruilin Dongying Refinery,CHN,oil-and-gas-refining,38.056643,118.869595,trace_118.869595_38.056643,owner,persons,100000123261.0,1.841547622376,Dongying Haike Ruilin Chemical Industry Limited,100000126102,100.0,real_property_refinery,2022-01-01 00:00:00,2022-12-31 00:00:00,2023-11-29 22:49:36.236556,,,"{6119,7061}"
3144187,Haike Ruilin Dongying Refinery,CHN,oil-and-gas-refining,38.056643,118.869595,trace_118.869595_38.056643,owner,Dongying Shengtewei Energy Investment Center,100000128888.0,29.132365,Dongying Haike Ruilin Chemical Industry Limited,100000126102,100.0,real_property_refinery,2022-01-01 00:00:00,2022-12-31 00:00:00,2023-11-29 22:49:36.236507,,,"{6119,7061}"
3144187,Haike Ruilin Dongying Refinery,CHN,oil-and-gas-refining,38.056643,118.869595,trace_118.869595_38.056643,owner,Dongying Didawei Enterprise Management Consulting Center,100000128889.0,22.090017,Dongying Haike Ruilin Chemical Industry Limited,100000126102,100.0,real_property_refinery,2022-01-01 00:00:00,2022-12-31 00:00:00,2023-11-29 22:49:36.236524,,,"{6119,7061}"
3144187,Haike Ruilin Dongying Refinery,CHN,oil-and-gas-refining,38.056643,118.869595,trace_118.869595_38.056643,owner,Dongying Ward Investment,100000129012.0,7.830446192624,Dongying Haike Ruilin Chemical Industry Limited,100000126102,100.0,real_property_refinery,2022-01-01 00:00:00,2022-12-31 00:00:00,2023-11-29 22:49:36.23654,,,"{6119,7061}"
3144202,Haiyou Rizhao Refinery,CHN,oil-and-gas-refining,35.447979,118.714134,trace_118.714134_35.447979,owner,other,100000001753.0,4.0,Shandong SEA Right Petrochemical,100000127336,100.0,real_property_refinery,2022-01-01 00:00:00,2022-12-31 00:00:00,2023-11-29 22:49:36.237151,,,"{6119,7061}"
3144202,Haiyou Rizhao Refinery,CHN,oil-and-gas-refining,35.447979,118.714134,trace_118.714134_35.447979,owner,persons,100000123261.0,36.0,Shandong SEA Right Petrochemical,100000127336,100.0,real_property_refinery,2022-01-01 00:00:00,2022-12-31 00:00:00,2023-11-29 22:49:36.237097,,,"{6119,7061}"
3144202,Haiyou Rizhao Refinery,CHN,oil-and-gas-refining,35.447979,118.714134,trace_118.714134_35.447979,owner,Juxian State Capital Operating,100000127648.0,30.0,Shandong SEA Right Petrochemical,100000127336,100.0,real_property_refinery,2022-01-01 00:00:00,2022-12-31 00:00:00,2023-11-29 22:49:36.237129,,,"{6119,7061}"
3144202,Haiyou Rizhao Refinery,CHN,oil-and-gas-refining,35.447979,118.714134,trace_118.714134_35.447979,owner,Juxian Public Transport Development Group,100000127649.0,30.0,Shandong SEA Right Petrochemical,100000127336,100.0,real_property_refinery,2022-01-01 00:00:00,2022-12-31 00:00:00,2023-11-29 22:49:36.237113,,,"{6119,7061}"
3144230,Hebei Kaiyi New Material Technology Refinery,CHN,oil-and-gas-refining,38.5236,117.38107,trace_117.38107_38.5236,owner,Hebei Kaiyi New Material Technology,100000127380.0,100.0,Hebei Kaiyi New Material Technology,100000127380,100.0,real_property_refinery,2022-01-01 00:00:00,2022-12-31 00:00:00,2023-11-29 22:49:36.23803,,,"{6119,7061}"
3144249,Hebei Lunte Chemical Industry Group Refinery,CHN,oil-and-gas-refining,38.3007,117.7253,trace_117.7253_38.3007,owner,Hebei Lunte Chemical Industry Group,100001014777.0,100.0,Hebei Lunte Chemical Industry Group,100001014777,100.0,real_property_refinery,2022-01-01 00:00:00,2022-12-31 00:00:00,2023-11-29 22:49:36.238687,,,{7061}
3144222,Hebei Xinhai Chemical Group Refinery,CHN,oil-and-gas-refining,38.299046,117.701209,trace_117.701209_38.299046,owner,Hebei Xinhai Holding Group,100000128063.0,100.0,Hebei Xinhai Chemical Group,100000126718,100.0,real_property_refinery,2022-01-01 00:00:00,2022-12-31 00:00:00,2023-11-29 22:49:36.237613,,,"{6119,7061}"
3144240,Hebei Xinqiyuan Energy Technology Development Refinery,CHN,oil-and-gas-refining,38.4607,117.6174,trace_117.6174_38.4607,owner,other,100000001753.0,15.160000000000002,Hebei Xinqiyuan Energy Technology Development,100000126502,100.0,real_property_refinery,2022-01-01 00:00:00,2022-12-31 00:00:00,2023-11-29 22:49:36.238391,,,"{6119,7061}"
3144240,Hebei Xinqiyuan Energy Technology Development Refinery,CHN,oil-and-gas-refining,38.4607,117.6174,trace_117.6174_38.4607,owner,Hebei Zhongjie Petrochemical,100000128057.0,84.84,Hebei Xinqiyuan Energy Technology Development,100000126502,100.0,real_property_refinery,2022-01-01 00:00:00,2022-12-31 00:00:00,2023-11-29 22:49:36.238407,,,"{6119,7061}"
3144248,Hebei Xinquan Petrochemical Refinery,CHN,oil-and-gas-refining,40.760411,114.99776,trace_114.99776_40.760411,owner,other,100000001753.0,1.49,Hebei Xinquan Petrochemical,100000127237,100.0,real_property_refinery,2022-01-01 00:00:00,2022-12-31 00:00:00,2023-11-29 22:49:36.238666,,,"{6119,7061}"
3144248,Hebei Xinquan Petrochemical Refinery,CHN,oil-and-gas-refining,40.760411,114.99776,trace_114.99776_40.760411,owner,persons,100000123261.0,47.51,Hebei Xinquan Petrochemical,100000127237,100.0,real_property_refinery,2022-01-01 00:00:00,2022-12-31 00:00:00,2023-11-29 22:49:36.238651,,,"{6119,7061}"
3144248,Hebei Xinquan Petrochemical Refinery,CHN,oil-and-gas-refining,40.760411,114.99776,trace_114.99776_40.760411,owner,Century Chinese Investment Management (Shenzhen),100000128062.0,51.0,Hebei Xinquan Petrochemical,100000127237,100.0,real_property_refinery,2022-01-01 00:00:00,2022-12-31 00:00:00,2023-11-29 22:49:36.238635,,,"{6119,7061}"
3144234,Henan Fengli Petrochemical Refinery,CHN,oil-and-gas-refining,35.868846,115.518685,trace_115.518685_35.868846,owner,Henan Fengli Petrochemical,100001014776.0,100.0,Henan Fengli Petrochemical,100001014776,100.0,real_property_refinery,2022-01-01 00:00:00,2022-12-31 00:00:00,2023-11-29 22:49:36.238188,,,{7061}
3143816,Hengli Dalian Changxing Refinery,CHN,oil-and-gas-refining,39.553614,121.243034,trace_121.243034_39.553614,owner,Hengli Petrochemical,100000123923.0,100.0,Hengli Petrochemical (DALIAN) Refinery,100000122471,100.0,real_property_refinery,2022-01-01 00:00:00,2022-12-31 00:00:00,2023-11-29 22:49:36.229258,,,"{6119,7061}"
3144224,Hongrun Petrochemical Refinery,CHN,oil-and-gas-refining,36.6985,119.07268,trace_119.07268_36.6985,owner,other,100000001753.0,33.962264,Hongrun Petrochemical,100000126529,100.0,real_property_refinery,2022-01-01 00:00:00,2022-12-31 00:00:00,2023-11-29 22:49:36.237677,,,"{6119,7061}"
3144224,Hongrun Petrochemical Refinery,CHN,oil-and-gas-refining,36.6985,119.07268,trace_119.07268_36.6985,owner,Sinochem Holdings Corporation,100000125246.0,13.01,Hongrun Petrochemical,100000126529,100.0,real_property_refinery,2022-01-01 00:00:00,2022-12-31 00:00:00,2023-11-29 22:49:36.237709,,,"{6119,7061}"
3144224,Hongrun Petrochemical Refinery,CHN,oil-and-gas-refining,36.6985,119.07268,trace_119.07268_36.6985,owner,"Dong Huayou (the equity was pledged on January 30, 2011. Pledgee: Sinochem Corporation)",100000130627.0,51.757736,Hongrun Petrochemical,100000126529,100.0,real_property_refinery,2022-01-01 00:00:00,2022-12-31 00:00:00,2023-11-29 22:49:36.237693,,,"{6119,7061}"
3143840,Hualian Petrochemical Dongying Refinery,CHN,oil-and-gas-refining,37.888688,118.41207,trace_118.41207_37.888688,owner,other,100000001753.0,0.18,Dongying Hualian Petrochemical,100000127104,100.0,real_property_refinery,2022-01-01 00:00:00,2022-12-31 00:00:00,2023-11-29 22:49:36.229795,,,"{6119,7061}"
3143840,Hualian Petrochemical Dongying Refinery,CHN,oil-and-gas-refining,37.888688,118.41207,trace_118.41207_37.888688,owner,Fuhai Group New Energy Holding,100000127409.0,99.82,Dongying Hualian Petrochemical,100000127104,100.0,real_property_refinery,2022-01-01 00:00:00,2022-12-31 00:00:00,2023-11-29 22:49:36.229777,,,"{6119,7061}"
3143835,Huaxing Dongying Refinery,CHN,oil-and-gas-refining,38.055154,118.86786,trace_118.86786_38.055154,owner,Huaxing Petrochemical,100001014660.0,100.0,Huaxing Petrochemical,100001014660,100.0,real_property_refinery,2022-01-01 00:00:00,2022-12-31 00:00:00,2023-11-29 22:49:36.229664,,,{7061}
3143839,Huifeng Zibo Refinery,CHN,oil-and-gas-refining,36.896424,118.103618,trace_118.103618_36.896424,owner,Shandong Wonfull Petrochemical Group,100000126315.0,100.0,Shandong Wonfull Petrochemical Group,100000126315,100.0,real_property_refinery,2022-01-01 00:00:00,2022-12-31 00:00:00,2023-11-29 22:49:36.229758,,,"{6119,7061}"
3144227,Jiangsu Xinhai Petrochemical Refinery,CHN,oil-and-gas-refining,35.095527,119.267906,trace_119.267906_35.095527,owner,Jiangsu Xinhai Petrochemical,100001014773.0,100.0,Jiangsu Xinhai Petrochemical,100001014773,100.0,real_property_refinery,2022-01-01 00:00:00,2022-12-31 00:00:00,2023-11-29 22:49:36.237755,,,{7061}
3144259,Jilin Province Xinda Petrochemical Refinery,CHN,oil-and-gas-refining,44.426117,125.13186,trace_125.13186_44.426117,owner,other,100000001753.0,0.7987,Jilin Province Xinda Petrochemical,100000126433,100.0,real_property_refinery,2022-01-01 00:00:00,2022-12-31 00:00:00,2023-11-29 22:49:36.238959,,,"{6119,7061}"
3144259,Jilin Province Xinda Petrochemical Refinery,CHN,oil-and-gas-refining,44.426117,125.13186,trace_125.13186_44.426117,owner,Changchun Xinda Petroleum Group,100000127546.0,51.0,Jilin Province Xinda Petrochemical,100000126433,100.0,real_property_refinery,2022-01-01 00:00:00,2022-12-31 00:00:00,2023-11-29 22:49:36.238943,,,"{6119,7061}"
3144258,Jilin Songyuan Petrochemical Refinery,CHN,oil-and-gas-refining,45.207521,124.847058,trace_124.847058_45.207521,owner,Jilin Songyuan Petrochemical,100000126619.0,100.0,Jilin Songyuan Petrochemical,100000126619,100.0,real_property_refinery,2022-01-01 00:00:00,2022-12-31 00:00:00,2023-11-29 22:49:36.238927,,,{7061}
3144262,Jinan Changcheng Petroleum Refinery,CHN,oil-and-gas-refining,36.6009,116.9464,trace_116.9464_36.6009,owner,Sinochem Holdings Corporation,100000125246.0,21.09,Jinan Changcheng Petroleum Refinery,100000127227,100.0,real_property_refinery,2022-01-01 00:00:00,2022-12-31 00:00:00,2023-11-29 22:49:36.239062,,,"{6119,7061}"
3144262,Jinan Changcheng Petroleum Refinery,CHN,oil-and-gas-refining,36.6009,116.9464,trace_116.9464_36.6009,owner,Malan Hand Pulled Noodles Fast Food Chain,100000128298.0,2.55,Jinan Changcheng Petroleum Refinery,100000127227,100.0,real_property_refinery,2022-01-01 00:00:00,2022-12-31 00:00:00,2023-11-29 22:49:36.239078,,,"{6119,7061}"
3144262,Jinan Changcheng Petroleum Refinery,CHN,oil-and-gas-refining,36.6009,116.9464,trace_116.9464_36.6009,owner,Zhongrong Zhaoye Investment Holding,100000128299.0,2.45,Jinan Changcheng Petroleum Refinery,100000127227,100.0,real_property_refinery,2022-01-01 00:00:00,2022-12-31 00:00:00,2023-11-29 22:49:36.239094,,,"{6119,7061}"
3144262,Jinan Changcheng Petroleum Refinery,CHN,oil-and-gas-refining,36.6009,116.9464,trace_116.9464_36.6009,owner,China Chengtong Holdings Group,100001000473.0,28.12,Jinan Changcheng Petroleum Refinery,100000127227,100.0,real_property_refinery,2022-01-01 00:00:00,2022-12-31 00:00:00,2023-11-29 22:49:36.239024,,,"{6119,7061}"
3144262,Jinan Changcheng Petroleum Refinery,CHN,oil-and-gas-refining,36.6009,116.9464,trace_116.9464_36.6009,owner,China Guoxin Holding,100001000475.0,21.09,Jinan Changcheng Petroleum Refinery,100000127227,100.0,real_property_refinery,2022-01-01 00:00:00,2022-12-31 00:00:00,2023-11-29 22:49:36.239045,,,"{6119,7061}"
3144225,Jinao (Hubei) Science & Technology Chemical Industry Refinery,CHN,oil-and-gas-refining,30.459884,112.876903,trace_112.876903_30.459884,owner,Jinao Science & Technology Chemical Industry,100001014772.0,100.0,Jinao Science & Technology Chemical Industry,100001014772,100.0,real_property_refinery,2022-01-01 00:00:00,2022-12-31 00:00:00,2023-11-29 22:49:36.237724,,,{7061}
3144198,Jincheng Zibo Refinery,CHN,oil-and-gas-refining,37.051059,117.893262,trace_117.893262_37.051059,owner,Shandong Jincheng Petrochemical Group,100001014766.0,100.0,Shandong Jincheng Petrochemical Group,100001014766,100.0,real_property_refinery,2022-01-01 00:00:00,2022-12-31 00:00:00,2023-11-29 22:49:36.237004,,,{7061}
3143836,Jingbo Binzhou Refinery,CHN,oil-and-gas-refining,37.387104,118.060985,trace_118.060985_37.387104,owner,Jingbo Petrochemical,100001014661.0,100.0,Jingbo Petrochemical,100001014661,100.0,real_property_refinery,2022-01-01 00:00:00,2022-12-31 00:00:00,2023-11-29 22:49:36.229679,,,{7061}
3144184,Kelida Dongying Refinery,CHN,oil-and-gas-refining,37.07048,118.345516,trace_118.345516_37.07048,owner,Guangrao Kelida Petrochemical Technology,100000126292.0,100.0,Guangrao Kelida Petrochemical Technology,100000126292,100.0,real_property_refinery,2022-01-01 00:00:00,2022-12-31 00:00:00,2023-11-29 22:49:36.236368,,,"{6119,7061}"
3144179,Kenli Dongying Refinery,CHN,oil-and-gas-refining,37.566577,118.540708,trace_118.540708_37.566577,owner,Shandong Kenli Petrochemical Group,100001014763.0,100.0,Shandong Kenli Petrochemical Group,100001014763,100.0,real_property_refinery,2022-01-01 00:00:00,2022-12-31 00:00:00,2023-11-29 22:49:36.236294,,,{7061}
3144189,Landbridge Rizhao Refinery,CHN,oil-and-gas-refining,35.140239,119.356979,trace_119.356979_35.140239,owner,persons,100000123261.0,3.4338200000000003,Shandong Province Landbridge Petrochemical,100000127169,100.0,real_property_refinery,2022-01-01 00:00:00,2022-12-31 00:00:00,2023-11-29 22:49:36.236636,,,"{6119,7061}"
3144189,Landbridge Rizhao Refinery,CHN,oil-and-gas-refining,35.140239,119.356979,trace_119.356979_35.140239,owner,Landbridge International,100000128415.0,52.76618,Shandong Province Landbridge Petrochemical,100000127169,100.0,real_property_refinery,2022-01-01 00:00:00,2022-12-31 00:00:00,2023-11-29 22:49:36.23662,,,"{6119,7061}"
3144207,Lianhe Dongying Refinery,CHN,oil-and-gas-refining,38.097135,118.884867,trace_118.884867_38.097135,owner,other,100000001753.0,0.4,Dongying UNITED Petroleum Chemical,100000126880,100.0,real_property_refinery,2022-01-01 00:00:00,2022-12-31 00:00:00,2023-11-29 22:49:36.237273,,,"{6119,7061}"
3144207,Lianhe Dongying Refinery,CHN,oil-and-gas-refining,38.097135,118.884867,trace_118.884867_38.097135,owner,persons,100000123261.0,4.4,Dongying UNITED Petroleum Chemical,100000126880,100.0,real_property_refinery,2022-01-01 00:00:00,2022-12-31 00:00:00,2023-11-29 22:49:36.237257,,,"{6119,7061}"
3144207,Lianhe Dongying Refinery,CHN,oil-and-gas-refining,38.097135,118.884867,trace_118.884867_38.097135,owner,Fuhai Group New Energy Holding,100000127409.0,37.6,Dongying UNITED Petroleum Chemical,100000126880,100.0,real_property_refinery,2022-01-01 00:00:00,2022-12-31 00:00:00,2023-11-29 22:49:36.237288,,,"{6119,7061}"
3144207,Lianhe Dongying Refinery,CHN,oil-and-gas-refining,38.097135,118.884867,trace_118.884867_38.097135,owner,Shandong High-Speed Group,100000128421.0,40.0,Dongying UNITED Petroleum Chemical,100000126880,100.0,real_property_refinery,2022-01-01 00:00:00,2022-12-31 00:00:00,2023-11-29 22:49:36.237225,,,"{6119,7061}"
3144207,Lianhe Dongying Refinery,CHN,oil-and-gas-refining,38.097135,118.884867,trace_118.884867_38.097135,owner,"Shengli Oil Field Dongsheng Tianqin Science, Industry and Trade",100000128609.0,17.6,Dongying UNITED Petroleum Chemical,100000126880,100.0,real_property_refinery,2022-01-01 00:00:00,2022-12-31 00:00:00,2023-11-29 22:49:36.237241,,,"{6119,7061}"
3144212,Liaoning Huajin Petrochemical Panjin Refinery,CHN,oil-and-gas-refining,41.195898,121.990785,trace_121.990785_41.195898,owner,North Huajin Chemical Industries,100000124164.0,100.0,North Huajin Chemical Industries,100000124164,100.0,real_property_refinery,2022-01-01 00:00:00,2022-12-31 00:00:00,2023-11-29 22:49:36.237427,,,{7061}
3144200,Lijin Dongying Refinery,CHN,oil-and-gas-refining,37.515299,118.234761,trace_118.234761_37.515299,owner,other,100000001753.0,37.284312,Lihuayi Lijin Refining & Chemical,100000126813,100.0,real_property_refinery,2022-01-01 00:00:00,2022-12-31 00:00:00,2023-11-29 22:49:36.23705,,,"{6119,7061}"
3144200,Lijin Dongying Refinery,CHN,oil-and-gas-refining,37.515299,118.234761,trace_118.234761_37.515299,owner,Lijin Xinke New Energy,100000127541.0,19.05,Lihuayi Lijin Refining & Chemical,100000126813,100.0,real_property_refinery,2022-01-01 00:00:00,2022-12-31 00:00:00,2023-11-29 22:49:36.237066,,,"{6119,7061}"
3144200,Lijin Dongying Refinery,CHN,oil-and-gas-refining,37.515299,118.234761,trace_118.234761_37.515299,owner,Employee Stock Ownership Association of Lihuayi Group,100000130265.0,38.635688,Lihuayi Lijin Refining & Chemical,100000126813,100.0,real_property_refinery,2022-01-01 00:00:00,2022-12-31 00:00:00,2023-11-29 22:49:36.237035,,,"{6119,7061}"
3144265,Lijin Guangyuan Asphalt Refinery,CHN,oil-and-gas-refining,37.6761,118.34006,trace_118.34006_37.6761,owner,Lijin Guangyuan Asphalt,100000126353.0,100.0,Lijin Guangyuan Asphalt,100000126353,100.0,real_property_refinery,2022-01-01 00:00:00,2022-12-31 00:00:00,2023-11-29 22:49:36.239126,,,"{6119,7061}"
3144231,Luoyang Hongxing Xinneng Chemical Refinery,CHN,oil-and-gas-refining,34.867865,112.514757,trace_112.514757_34.867865,owner,other,100000001753.0,2.9155,Luoyang Hongxing Xinneng Chemical,100000126290,100.0,real_property_refinery,2022-01-01 00:00:00,2022-12-31 00:00:00,2023-11-29 22:49:36.238095,,,"{6119,7061}"
3144231,Luoyang Hongxing Xinneng Chemical Refinery,CHN,oil-and-gas-refining,34.867865,112.514757,trace_112.514757_34.867865,owner,persons,100000123261.0,1.2494999999999998,Luoyang Hongxing Xinneng Chemical,100000126290,100.0,real_property_refinery,2022-01-01 00:00:00,2022-12-31 00:00:00,2023-11-29 22:49:36.238111,,,"{6119,7061}"
3144231,Luoyang Hongxing Xinneng Chemical Refinery,CHN,oil-and-gas-refining,34.867865,112.514757,trace_112.514757_34.867865,owner,Luoyang Guohong Investment Holding Group,100000124091.0,42.3368,Luoyang Hongxing Xinneng Chemical,100000126290,100.0,real_property_refinery,2022-01-01 00:00:00,2022-12-31 00:00:00,2023-11-29 22:49:36.238063,,,"{6119,7061}"
3144231,Luoyang Hongxing Xinneng Chemical Refinery,CHN,oil-and-gas-refining,34.867865,112.514757,trace_112.514757_34.867865,owner,Luoyang Luohua Hongda Equity Investment Management Center,100000128541.0,45.6632,Luoyang Hongxing Xinneng Chemical,100000126290,100.0,real_property_refinery,2022-01-01 00:00:00,2022-12-31 00:00:00,2023-11-29 22:49:36.238047,,,"{6119,7061}"
3144231,Luoyang Hongxing Xinneng Chemical Refinery,CHN,oil-and-gas-refining,34.867865,112.514757,trace_112.514757_34.867865,owner,Lanzhou LS Heavy Equipment,100000128542.0,4.335,Luoyang Hongxing Xinneng Chemical,100000126290,100.0,real_property_refinery,2022-01-01 00:00:00,2022-12-31 00:00:00,2023-11-29 22:49:36.238079,,,"{6119,7061}"
3144216,Luqing Refinery,CHN,oil-and-gas-refining,37.199917,118.847321,trace_118.847321_37.199917,owner,Shandong Shouguang Luqing Petrochemical,100000126352.0,100.0,Shandong Shouguang Luqing Petrochemical,100000126352,100.0,real_property_refinery,2022-01-01 00:00:00,2022-12-31 00:00:00,2023-11-29 22:49:36.237485,,,"{6119,7061}"
3143846,Ningxia Baota Refinery,CHN,oil-and-gas-refining,38.42214,106.116845,trace_106.116845_38.42214,owner,Baota Petrochemical Group,100000128387.0,100.0,Baota Petrochemical Group,100000128387,100.0,real_property_refinery,2022-01-01 00:00:00,2022-12-31 00:00:00,2023-11-29 22:49:36.229952,,,"{6119,7061}"
3144250,Ningxia Ninglu Petrochemical Refinery,CHN,oil-and-gas-refining,37.742605,107.45653,trace_107.45653_37.742605,owner,Ningxia Lilong Supply Chain Management,100000127599.0,55.00000000000001,Ningxia Ninglu Petrochemical,100000127393,100.0,real_property_refinery,2022-01-01 00:00:00,2022-12-31 00:00:00,2023-11-29 22:49:36.238704,,,"{6119,7061}"
3144250,Ningxia Ninglu Petrochemical Refinery,CHN,oil-and-gas-refining,37.742605,107.45653,trace_107.45653_37.742605,owner,Ningxia Huafu Supply Chain Management,100000127600.0,45.0,Ningxia Ninglu Petrochemical,100000127393,100.0,real_property_refinery,2022-01-01 00:00:00,2022-12-31 00:00:00,2023-11-29 22:49:36.23872,,,"{6119,7061}"
3144243,Ningxia Ruike Chemical Refinery,CHN,oil-and-gas-refining,37.36008,106.5991,trace_106.5991_37.36008,owner,Ningxia Ruike Energy Group,100000127602.0,100.0,Ningxia Ruike Chemical,100000126552,100.0,real_property_refinery,2022-01-01 00:00:00,2022-12-31 00:00:00,2023-11-29 22:49:36.238455,,,"{6119,7061}"
3144226,Panjin Haoye Chemical Refinery,CHN,oil-and-gas-refining,41.340925,122.165146,trace_122.165146_41.340925,owner,Panjin Haoye Chemical,100000127184.0,100.0,Panjin Haoye Chemical,100000127184,100.0,real_property_refinery,2022-01-01 00:00:00,2022-12-31 00:00:00,2023-11-29 22:49:36.23774,,,"{6119,7061}"
3144236,Panjin Northern Asphalt Corporation Ltd,CHN,oil-and-gas-refining,41.154919,122.11228,trace_122.11228_41.154919,owner,Panjin Northern Asphalt Corporation,100000126553.0,100.0,Panjin Northern Asphalt Corporation,100000126553,100.0,real_property_refinery,2022-01-01 00:00:00,2022-12-31 00:00:00,2023-11-29 22:49:36.238237,,,{7061}
3144221,Panjin Northern Asphalt Fuel Refinery,CHN,oil-and-gas-refining,40.773217,122.006112,trace_122.006112_40.773217,owner,Hong Kong Polaris Holdings,100000130608.0,58.32999999999999,Panjin Northern Asphalt Fuel,100000126522,100.0,real_property_refinery,2022-01-01 00:00:00,2022-12-31 00:00:00,2023-11-29 22:49:36.237596,,,"{6119,7061}"
3143851,PetroChina Dagang Tianjin Refinery,CHN,oil-and-gas-refining,38.727366,117.517363,trace_117.517363_38.727366,owner,PetroChina,100000000245.0,100.0,PetroChina,100000000245,100.0,real_property_refinery,2022-01-01 00:00:00,2022-12-31 00:00:00,2023-11-29 22:49:36.230215,,,{7061}
3143793,PetroChina Dalian Refinery,CHN,oil-and-gas-refining,38.976702,121.657388,trace_121.657388_38.976702,owner,PetroChina,100000000245.0,100.0,PetroChina,100000000245,100.0,real_property_refinery,2022-01-01 00:00:00,2022-12-31 00:00:00,2023-11-29 22:49:36.228882,,,{7061}
3143794,PetroChina Daqing Petrochemical Refinery,CHN,oil-and-gas-refining,46.56157,124.82719,trace_124.82719_46.56157,owner,PetroChina,100000000245.0,100.0,PetroChina,100000000245,100.0,real_property_refinery,2022-01-01 00:00:00,2022-12-31 00:00:00,2023-11-29 22:49:36.228906,,,{7061}
3143795,PetroChina Dushanzi Karamay Refinery,CHN,oil-and-gas-refining,44.36397,84.8638,trace_84.8638_44.36397,owner,PetroChina,100000000245.0,100.0,PetroChina,100000000245,100.0,real_property_refinery,2022-01-01 00:00:00,2022-12-31 00:00:00,2023-11-29 22:49:36.228923,,,{7061}
3143827,PetroChina Guangdong Jieyang Refinery,CHN,oil-and-gas-refining,22.93953,116.227218,trace_116.227218_22.93953,owner,PetroChina,100000000245.0,100.0,PetroChina,100000000245,100.0,real_property_refinery,2022-01-01 00:00:00,2022-12-31 00:00:00,2023-11-29 22:49:36.229497,,,{7061}
3143826,PetroChina Guangxi Qinzhou Refinery,CHN,oil-and-gas-refining,21.715297,108.611677,trace_108.611677_21.715297,owner,PetroChina,100000000245.0,100.0,PetroChina,100000000245,100.0,real_property_refinery,2022-01-01 00:00:00,2022-12-31 00:00:00,2023-11-29 22:49:36.229481,,,{7061}
3144211,PetroChina Harbin Refinery,CHN,oil-and-gas-refining,45.756229,126.737755,trace_126.737755_45.756229,owner,PetroChina,100000000245.0,100.0,PetroChina,100000000245,100.0,real_property_refinery,2022-01-01 00:00:00,2022-12-31 00:00:00,2023-11-29 22:49:36.237411,,,{7061}
3143852,PetroChina Hohhot Petrochemical Refinery,CHN,oil-and-gas-refining,40.738681,111.755088,trace_111.755088_40.738681,owner,PetroChina,100000000245.0,100.0,PetroChina,100000000245,100.0,real_property_refinery,2022-01-01 00:00:00,2022-12-31 00:00:00,2023-11-29 22:49:36.230231,,,{7061}
3143844,PetroChina Huabei Renqiu Petrochemical Refinery,CHN,oil-and-gas-refining,38.741215,116.13743,trace_116.13743_38.741215,owner,PetroChina,100000000245.0,100.0,PetroChina,100000000245,100.0,real_property_refinery,2022-01-01 00:00:00,2022-12-31 00:00:00,2023-11-29 22:49:36.22986,,,{7061}
3143796,PetroChina Jilin Chemical Refinery,CHN,oil-and-gas-refining,43.871431,126.658584,trace_126.658584_43.871431,owner,PetroChina,100000000245.0,100.0,PetroChina,100000000245,100.0,real_property_refinery,2022-01-01 00:00:00,2022-12-31 00:00:00,2023-11-29 22:49:36.228938,,,{7061}
3143797,PetroChina Jinxi Refinery,CHN,oil-and-gas-refining,40.834,121.04504,trace_121.04504_40.834,owner,PetroChina,100000000245.0,100.0,PetroChina,100000000245,100.0,real_property_refinery,2022-01-01 00:00:00,2022-12-31 00:00:00,2023-11-29 22:49:36.228957,,,{7061}
3143798,PetroChina Jinzhou Petrochemical Refinery,CHN,oil-and-gas-refining,41.138061,121.087008,trace_121.087008_41.138061,owner,PetroChina,100000000245.0,100.0,PetroChina,100000000245,100.0,real_property_refinery,2022-01-01 00:00:00,2022-12-31 00:00:00,2023-11-29 22:49:36.228973,,,{7061}
3144205,PetroChina Karamay Refinery,CHN,oil-and-gas-refining,45.577537,84.993466,trace_84.993466_45.577537,owner,PetroChina,100000000245.0,100.0,PetroChina,100000000245,100.0,real_property_refinery,2022-01-01 00:00:00,2022-12-31 00:00:00,2023-11-29 22:49:36.237195,,,{7061}
3143799,PetroChina Lanzhou Refinery,CHN,oil-and-gas-refining,36.109481,103.64567,trace_103.64567_36.109481,owner,PetroChina,100000000245.0,100.0,PetroChina,100000000245,100.0,real_property_refinery,2022-01-01 00:00:00,2022-12-31 00:00:00,2023-11-29 22:49:36.228989,,,{7061}
3143843,PetroChina Liaoning Liaohe Panjin Refinery,CHN,oil-and-gas-refining,41.156833,122.091393,trace_122.091393_41.156833,owner,PetroChina,100000000245.0,100.0,PetroChina,100000000245,100.0,real_property_refinery,2022-01-01 00:00:00,2022-12-31 00:00:00,2023-11-29 22:49:36.229844,,,{7061}
3143830,PetroChina Liaoning Liaoyang Refinery,CHN,oil-and-gas-refining,41.213913,123.215406,trace_123.215406_41.213913,owner,PetroChina,100000000245.0,100.0,PetroChina,100000000245,100.0,real_property_refinery,2022-01-01 00:00:00,2022-12-31 00:00:00,2023-11-29 22:49:36.229544,,,{7061}
3143849,PetroChina Ningxia Yinchuan Refinery,CHN,oil-and-gas-refining,38.480763,106.059862,trace_106.059862_38.480763,owner,PetroChina,100000000245.0,100.0,PetroChina,100000000245,100.0,real_property_refinery,2022-01-01 00:00:00,2022-12-31 00:00:00,2023-11-29 22:49:36.230183,,,{7061}
3144204,PetroChina Qingyang Refinery,CHN,oil-and-gas-refining,35.652062,107.628019,trace_107.628019_35.652062,owner,PetroChina,100000000245.0,100.0,PetroChina,100000000245,100.0,real_property_refinery,2022-01-01 00:00:00,2022-12-31 00:00:00,2023-11-29 22:49:36.237181,,,{7061}
3143850,PetroChina Shaanxi Changqing Refinery,CHN,oil-and-gas-refining,34.36138,108.766981,trace_108.766981_34.36138,owner,PetroChina,100000000245.0,100.0,PetroChina,100000000245,100.0,real_property_refinery,2022-01-01 00:00:00,2022-12-31 00:00:00,2023-11-29 22:49:36.230199,,,{7061}
3143825,PetroChina Sichuan Pengzhou Refinery,CHN,oil-and-gas-refining,31.065658,103.898941,trace_103.898941_31.065658,owner,PetroChina,100000000245.0,100.0,PetroChina,100000000245,100.0,real_property_refinery,2022-01-01 00:00:00,2022-12-31 00:00:00,2023-11-29 22:49:36.229465,,,{7061}
3143801,PetroChina Urumqi Petrochemical,CHN,oil-and-gas-refining,43.74638,87.65048,trace_87.65048_43.74638,owner,PetroChina,100000000245.0,100.0,PetroChina,100000000245,100.0,real_property_refinery,2022-01-01 00:00:00,2022-12-31 00:00:00,2023-11-29 22:49:36.22902,,,{7061}
3144206,PetroChina Yumen Refinery,CHN,oil-and-gas-refining,39.830516,97.560662,trace_97.560662_39.830516,owner,PetroChina,100000000245.0,100.0,PetroChina,100000000245,100.0,real_property_refinery,2022-01-01 00:00:00,2022-12-31 00:00:00,2023-11-29 22:49:36.237209,,,{7061}
3143824,PetroChina Yunnan Anning Refinery,CHN,oil-and-gas-refining,24.9137,102.377071,trace_102.377071_24.9137,owner,PetroChina,100000000245.0,100.0,PetroChina,100000000245,100.0,real_property_refinery,2022-01-01 00:00:00,2022-12-31 00:00:00,2023-11-29 22:49:36.229449,,,{7061}
3144203,Qicheng Dongying Refinery,CHN,oil-and-gas-refining,37.11948,118.441201,trace_118.441201_37.11948,owner,Guangrao Houcheng Investment,100000127671.0,100.0,Shandong Qicheng Petrochemical,100000127341,100.0,real_property_refinery,2022-01-01 00:00:00,2022-12-31 00:00:00,2023-11-29 22:49:36.237167,,,"{6119,7061}"
3144197,Qingdao Anbang Refinery Refinery,CHN,oil-and-gas-refining,36.324211,120.297352,trace_120.297352_36.324211,owner,other,100000001753.0,0.1221579999999999,Qingdao Anbang Refining-petrochemical,100000126905,100.0,real_property_refinery,2022-01-01 00:00:00,2022-12-31 00:00:00,2023-11-29 22:49:36.236924,,,"{6119,7061}"
3144197,Qingdao Anbang Refinery Refinery,CHN,oil-and-gas-refining,36.324211,120.297352,trace_120.297352_36.324211,owner,Sinochem Holdings Corporation,100000125246.0,10.05,Qingdao Anbang Refining-petrochemical,100000126905,100.0,real_property_refinery,2022-01-01 00:00:00,2022-12-31 00:00:00,2023-11-29 22:49:36.236908,,,"{6119,7061}"
3144197,Qingdao Anbang Refinery Refinery,CHN,oil-and-gas-refining,36.324211,120.297352,trace_120.297352_36.324211,owner,Qingdao Guangyuanfa Group,100000128666.0,10.11,Qingdao Anbang Refining-petrochemical,100000126905,100.0,real_property_refinery,2022-01-01 00:00:00,2022-12-31 00:00:00,2023-11-29 22:49:36.236957,,,"{6119,7061}"
3144197,Qingdao Anbang Refinery Refinery,CHN,oil-and-gas-refining,36.324211,120.297352,trace_120.297352_36.324211,owner,Qingdao Guangyuanfa Group,100000130535.0,2.628000000000001,Qingdao Anbang Refining-petrochemical,100000126905,100.0,real_property_refinery,2022-01-01 00:00:00,2022-12-31 00:00:00,2023-11-29 22:49:36.236989,,,"{6119,7061}"
3144197,Qingdao Anbang Refinery Refinery,CHN,oil-and-gas-refining,36.324211,120.297352,trace_120.297352_36.324211,owner,Qingdao Guangyuan Group Economic and Trade,100000130536.0,3.9420000000000006,Qingdao Anbang Refining-petrochemical,100000126905,100.0,real_property_refinery,2022-01-01 00:00:00,2022-12-31 00:00:00,2023-11-29 22:49:36.236973,,,"{6119,7061}"
3144197,Qingdao Anbang Refinery Refinery,CHN,oil-and-gas-refining,36.324211,120.297352,trace_120.297352_36.324211,owner,Qingdao Chengyang District Public Assets Management Center,100000130684.0,11.737842,Qingdao Anbang Refining-petrochemical,100000126905,100.0,real_property_refinery,2022-01-01 00:00:00,2022-12-31 00:00:00,2023-11-29 22:49:36.236941,,,"{6119,7061}"
3144197,Qingdao Anbang Refinery Refinery,CHN,oil-and-gas-refining,36.324211,120.297352,trace_120.297352_36.324211,owner,China Chengtong Holdings Group,100001000473.0,13.4,Qingdao Anbang Refining-petrochemical,100000126905,100.0,real_property_refinery,2022-01-01 00:00:00,2022-12-31 00:00:00,2023-11-29 22:49:36.236874,,,"{6119,7061}"
3144197,Qingdao Anbang Refinery Refinery,CHN,oil-and-gas-refining,36.324211,120.297352,trace_120.297352_36.324211,owner,China Guoxin Holding,100001000475.0,10.05,Qingdao Anbang Refining-petrochemical,100000126905,100.0,real_property_refinery,2022-01-01 00:00:00,2022-12-31 00:00:00,2023-11-29 22:49:36.23689,,,"{6119,7061}"
3144195,Qingyishan Linyi Refinery,CHN,oil-and-gas-refining,35.717367,118.573364,trace_118.573364_35.717367,owner,other,100000001753.0,5.0,Shandong Qingyishan Petrochemical Technology,100000127219,100.0,real_property_refinery,2022-01-01 00:00:00,2022-12-31 00:00:00,2023-11-29 22:49:36.236842,,,"{6119,7061}"
3144195,Qingyishan Linyi Refinery,CHN,oil-and-gas-refining,35.717367,118.573364,trace_118.573364_35.717367,owner,Shandong Qingyuan Group,100000127642.0,75.0,Shandong Qingyishan Petrochemical Technology,100000127219,100.0,real_property_refinery,2022-01-01 00:00:00,2022-12-31 00:00:00,2023-11-29 22:49:36.23681,,,"{6119,7061}"
3144195,Qingyishan Linyi Refinery,CHN,oil-and-gas-refining,35.717367,118.573364,trace_118.573364_35.717367,owner,ERLIAN GAOLU Foreign Economic & Trade,100000127651.0,20.0,Shandong Qingyishan Petrochemical Technology,100000127219,100.0,real_property_refinery,2022-01-01 00:00:00,2022-12-31 00:00:00,2023-11-29 22:49:36.236826,,,"{6119,7061}"
3143845,Qingyuan Zibo Refinery,CHN,oil-and-gas-refining,36.782032,118.184741,trace_118.184741_36.782032,owner,other,100000001753.0,1.2612,Shandong Qingyuan Petrochemical,100000127109,100.0,real_property_refinery,2022-01-01 00:00:00,2022-12-31 00:00:00,2023-11-29 22:49:36.229896,,,"{6119,7061}"
3143845,Qingyuan Zibo Refinery,CHN,oil-and-gas-refining,36.782032,118.184741,trace_118.184741_36.782032,owner,persons,100000123261.0,18.78,Shandong Qingyuan Petrochemical,100000127109,100.0,real_property_refinery,2022-01-01 00:00:00,2022-12-31 00:00:00,2023-11-29 22:49:36.229917,,,"{6119,7061}"
3143845,Qingyuan Zibo Refinery,CHN,oil-and-gas-refining,36.782032,118.184741,trace_118.184741_36.782032,owner,Shandong Qingyuan Group,100000127642.0,61.7988,Shandong Qingyuan Petrochemical,100000127109,100.0,real_property_refinery,2022-01-01 00:00:00,2022-12-31 00:00:00,2023-11-29 22:49:36.229878,,,"{6119,7061}"
3143845,Qingyuan Zibo Refinery,CHN,oil-and-gas-refining,36.782032,118.184741,trace_118.184741_36.782032,owner,Zibo Rongquan Investment,100000128549.0,14.826320000000004,Shandong Qingyuan Petrochemical,100000127109,100.0,real_property_refinery,2022-01-01 00:00:00,2022-12-31 00:00:00,2023-11-29 22:49:36.229934,,,"{6119,7061}"
3144186,Qirun Dongying Refinery,CHN,oil-and-gas-refining,37.272677,118.715212,trace_118.715212_37.272677,owner,Shandong Qirun Holding Group,100000127413.0,100.0,Dongying Qirun Chemical Industries,100000126848,100.0,real_property_refinery,2022-01-01 00:00:00,2022-12-31 00:00:00,2023-11-29 22:49:36.236491,,,"{6119,7061}"
3144264,RUIKE Xinyuan Chemical Refinery,CHN,oil-and-gas-refining,37.4216,106.6205,trace_106.6205_37.4216,owner,RUIKE Xinyuan Chemical,100000127343.0,,RUIKE Xinyuan Chemical,100000127343,,real_property_refinery,2022-01-01 00:00:00,2022-12-31 00:00:00,2023-11-29 22:49:36.237576,,,"{6119,7061}"
3144264,RUIKE Xinyuan Chemical Refinery,CHN,oil-and-gas-refining,37.4216,106.6205,trace_106.6205_37.4216,owner,XinJiang KuiShan Baot Tao Petrochemical,100001014771.0,,XinJiang KuiShan Baot Tao Petrochemical,100001014771,,real_property_refinery,2022-01-01 00:00:00,2022-12-31 00:00:00,2023-11-29 22:49:36.23756,,,{7061}
3143791,SINOPEC Beijing Yanshan Company Refinery,CHN,oil-and-gas-refining,39.730714,115.969481,trace_115.969481_39.730714,owner,Sinopec,100001010970.0,100.0,Sinopec,100001010970,100.0,real_property_refinery,2022-01-01 00:00:00,2022-12-31 00:00:00,2023-11-29 22:49:36.228851,,,{7061}
3143802,SINOPEC CPCC Changling Company Yueyang Refinery,CHN,oil-and-gas-refining,29.540318,113.37067,trace_113.37067_29.540318,owner,Sinopec,100001010970.0,100.0,Sinopec,100001010970,100.0,real_property_refinery,2022-01-01 00:00:00,2022-12-31 00:00:00,2023-11-29 22:49:36.229036,,,{7061}
3143792,SINOPEC CPCC Guangzhou Branch Refinery,CHN,oil-and-gas-refining,23.12427,113.478267,trace_113.478267_23.12427,owner,Sinopec,100001010970.0,100.0,Sinopec,100001010970,100.0,real_property_refinery,2022-01-01 00:00:00,2022-12-31 00:00:00,2023-11-29 22:49:36.228866,,,{7061}
3143803,SINOPEC Jingmen Company,CHN,oil-and-gas-refining,31.019187,112.216833,trace_112.216833_31.019187,owner,Sinopec,100001010970.0,100.0,Sinopec,100001010970,100.0,real_property_refinery,2022-01-01 00:00:00,2022-12-31 00:00:00,2023-11-29 22:49:36.229051,,,{7061}
3143804,SINOPEC Luoyang Company,CHN,oil-and-gas-refining,34.9104,112.59799,trace_112.59799_34.9104,owner,Sinopec,100001010970.0,100.0,Sinopec,100001010970,100.0,real_property_refinery,2022-01-01 00:00:00,2022-12-31 00:00:00,2023-11-29 22:49:36.229067,,,{7061}
3143787,SINOPEC Maoming Company Refinery,CHN,oil-and-gas-refining,21.678287,110.884341,trace_110.884341_21.678287,owner,Sinopec,100001010970.0,100.0,Sinopec,100001010970,100.0,real_property_refinery,2022-01-01 00:00:00,2022-12-31 00:00:00,2023-11-29 22:49:36.228786,,,{7061}
3143789,SINOPEC Qilu Company Refinery,CHN,oil-and-gas-refining,36.788515,118.266812,trace_118.266812_36.788515,owner,Sinopec,100001010970.0,100.0,Sinopec,100001010970,100.0,real_property_refinery,2022-01-01 00:00:00,2022-12-31 00:00:00,2023-11-29 22:49:36.228819,,,{7061}
3143788,SINOPEC Shanghai Gaoqiao Oil Refinery,CHN,oil-and-gas-refining,30.788636,121.454759,trace_121.454759_30.788636,owner,Sinopec,100001010970.0,100.0,Sinopec,100001010970,100.0,real_property_refinery,2022-01-01 00:00:00,2022-12-31 00:00:00,2023-11-29 22:49:36.228803,,,{7061}
3143805,SINOPEC Tianjin Company Refinery,CHN,oil-and-gas-refining,38.943003,117.724471,trace_117.724471_38.943003,owner,Sinopec,100001010970.0,100.0,Sinopec,100001010970,100.0,real_property_refinery,2022-01-01 00:00:00,2022-12-31 00:00:00,2023-11-29 22:49:36.229083,,,{7061}
3143807,SINOPEC Wuhan Company Refinery,CHN,oil-and-gas-refining,30.65233,114.42901,trace_114.42901_30.65233,owner,Sinopec,100001010970.0,100.0,Sinopec,100001010970,100.0,real_property_refinery,2022-01-01 00:00:00,2022-12-31 00:00:00,2023-11-29 22:49:36.229114,,,{7061}
3143786,SINOPEC Zhenhai Refinery,CHN,oil-and-gas-refining,29.98097,121.66684,trace_121.66684_29.98097,owner,Sinopec,100001010970.0,100.0,Sinopec,100001010970,100.0,real_property_refinery,2022-01-01 00:00:00,2022-12-31 00:00:00,2023-11-29 22:49:36.228698,,,{7061}
3144260,Shandong Boxing Yongxin Chemical Refinery,CHN,oil-and-gas-refining,37.1059,118.2269,trace_118.2269_37.1059,owner,Shandong Boxing Yongxin Chemical,100000126707.0,100.0,Shandong Boxing Yongxin Chemical,100000126707,100.0,real_property_refinery,2022-01-01 00:00:00,2022-12-31 00:00:00,2023-11-29 22:49:36.238976,,,"{6119,7061}"
3144223,Shandong Changyi Petrochemical Refinery,CHN,oil-and-gas-refining,36.8384,119.3686,trace_119.3686_36.8384,owner,Sinochem Holdings Corporation,100000125246.0,30.0,Shandong Changyi Petrochemical,100000126947,100.0,real_property_refinery,2022-01-01 00:00:00,2022-12-31 00:00:00,2023-11-29 22:49:36.237661,,,"{6119,7061}"
3144223,Shandong Changyi Petrochemical Refinery,CHN,oil-and-gas-refining,36.8384,119.3686,trace_119.3686_36.8384,owner,China Chengtong Holdings Group,100001000473.0,40.0,Shandong Changyi Petrochemical,100000126947,100.0,real_property_refinery,2022-01-01 00:00:00,2022-12-31 00:00:00,2023-11-29 22:49:36.237629,,,"{6119,7061}"
3144223,Shandong Changyi Petrochemical Refinery,CHN,oil-and-gas-refining,36.8384,119.3686,trace_119.3686_36.8384,owner,China Guoxin Holding,100001000475.0,30.0,Shandong Changyi Petrochemical,100000126947,100.0,real_property_refinery,2022-01-01 00:00:00,2022-12-31 00:00:00,2023-11-29 22:49:36.237645,,,"{6119,7061}"
3144229,Shandong Fangyu Lubricating Oil Refinery,CHN,oil-and-gas-refining,36.779323,118.171282,trace_118.171282_36.779323,owner,Shandong Fangyu Lubricating Oil,100001014774.0,100.0,Shandong Fangyu Lubricating Oil,100001014774,100.0,real_property_refinery,2022-01-01 00:00:00,2022-12-31 00:00:00,2023-11-29 22:49:36.238014,,,{7061}
3144232,Shandong Fuyu Chemical Refinery,CHN,oil-and-gas-refining,37.8886,118.4041,trace_118.4041_37.8886,owner,Shandong Fuyu Chemical,100001014775.0,100.0,Shandong Fuyu Chemical,100001014775,100.0,real_property_refinery,2022-01-01 00:00:00,2022-12-31 00:00:00,2023-11-29 22:49:36.238125,,,{7061}
3144253,Shandong Haiyue Chemical Industry Refinery,CHN,oil-and-gas-refining,37.982416,118.456401,trace_118.456401_37.982416,owner,persons,100000123261.0,40.0,Shandong Haiyue Chemical Industry,100000126750,100.0,real_property_refinery,2022-01-01 00:00:00,2022-12-31 00:00:00,2023-11-29 22:49:36.238799,,,"{6119,7061}"
3144253,Shandong Haiyue Chemical Industry Refinery,CHN,oil-and-gas-refining,37.982416,118.456401,trace_118.456401_37.982416,owner,China Overseas Holding Group,100000127650.0,60.0,Shandong Haiyue Chemical Industry,100000126750,100.0,real_property_refinery,2022-01-01 00:00:00,2022-12-31 00:00:00,2023-11-29 22:49:36.238784,,,"{6119,7061}"
3144246,Shandong Heng Runde Petrochemical Refinery,CHN,oil-and-gas-refining,37.01631,118.384254,trace_118.384254_37.01631,owner,ShanDong Heng Runde Petrochemical,100000126587.0,100.0,ShanDong Heng Runde Petrochemical,100000126587,100.0,real_property_refinery,2022-01-01 00:00:00,2022-12-31 00:00:00,2023-11-29 22:49:36.238585,,,"{6119,7061}"
3144263,Shandong Mingcheng Petrochemical Refinery,CHN,oil-and-gas-refining,37.8172,117.4058,trace_117.4058_37.8172,owner,Shandong Mingcheng Petrochemical,100000126956.0,100.0,Shandong Mingcheng Petrochemical,100000126956,100.0,real_property_refinery,2022-01-01 00:00:00,2022-12-31 00:00:00,2023-11-29 22:49:36.23911,,,"{6119,7061}"
3144261,Shandong Mingyuan Petrochemical Industry Refinery,CHN,oil-and-gas-refining,37.412544,118.355949,trace_118.355949_37.412544,owner,Laizhou Tianying Investment Management,100000127643.0,51.06,Shandong MINGYUAN Petrochemical Industry,100000126488,100.0,real_property_refinery,2022-01-01 00:00:00,2022-12-31 00:00:00,2023-11-29 22:49:36.238992,,,"{6119,7061}"
3144261,Shandong Mingyuan Petrochemical Industry Refinery,CHN,oil-and-gas-refining,37.412544,118.355949,trace_118.355949_37.412544,owner,Laizhou Fengyuan Chemical,100000127644.0,48.94,Shandong MINGYUAN Petrochemical Industry,100000126488,100.0,real_property_refinery,2022-01-01 00:00:00,2022-12-31 00:00:00,2023-11-29 22:49:36.239009,,,"{6119,7061}"
3144245,Shandong Red Sea Chemical Industry Refinery,CHN,oil-and-gas-refining,37.9804,118.46504,trace_118.46504_37.9804,owner,persons,100000123261.0,12.22,Shandong Red Sea Chemical Industry Limited,100000127110,100.0,real_property_refinery,2022-01-01 00:00:00,2022-12-31 00:00:00,2023-11-29 22:49:36.238488,,,"{6119,7061}"
3144245,Shandong Red Sea Chemical Industry Refinery,CHN,oil-and-gas-refining,37.9804,118.46504,trace_118.46504_37.9804,owner,Shandong Meichang Trading,100000127664.0,87.78,Shandong Red Sea Chemical Industry Limited,100000127110,100.0,real_property_refinery,2022-01-01 00:00:00,2022-12-31 00:00:00,2023-11-29 22:49:36.238568,,,"{6119,7061}"
3144242,Shandong Shen County Huaxiang Petrifaction Refinery,CHN,oil-and-gas-refining,35.833561,115.363405,trace_115.363405_35.833561,owner,Dongying Yatong Petrochemical,100000127661.0,100.0,Shandong Shen County Huaxiang Petrifaction,100000126973,100.0,real_property_refinery,2022-01-01 00:00:00,2022-12-31 00:00:00,2023-11-29 22:49:36.238439,,,"{6119,7061}"
3144235,Shandong Shtar Science & Technology Group Refinery,CHN,oil-and-gas-refining,37.4729,118.5433,trace_118.5433_37.4729,owner,Qingdao West Coast New Area Integration Holding Group,100000125277.0,51.0,Shandong Shtar Science & Technology Group,100000126938,100.0,real_property_refinery,2022-01-01 00:00:00,2022-12-31 00:00:00,2023-11-29 22:49:36.238222,,,"{6119,7061}"
3144235,Shandong Shtar Science & Technology Group Refinery,CHN,oil-and-gas-refining,37.4729,118.5433,trace_118.5433_37.4729,owner,State-owned Assets Management Bureau of Qingdao West Coast New Area,100000126090.0,49.0,Shandong Shtar Science & Technology Group,100000126938,100.0,real_property_refinery,2022-01-01 00:00:00,2022-12-31 00:00:00,2023-11-29 22:49:36.238205,,,"{6119,7061}"
3144233,Shandong Super Energy Industrial Co Refinery,CHN,oil-and-gas-refining,37.075939,118.342402,trace_118.342402_37.075939,owner,other,100000001753.0,4.2,Shandong Super Energy Industrial,100000126990,100.0,real_property_refinery,2022-01-01 00:00:00,2022-12-31 00:00:00,2023-11-29 22:49:36.238157,,,"{6119,7061}"
3144233,Shandong Super Energy Industrial Co Refinery,CHN,oil-and-gas-refining,37.075939,118.342402,trace_118.342402_37.075939,owner,persons,100000123261.0,12.6,Shandong Super Energy Industrial,100000126990,100.0,real_property_refinery,2022-01-01 00:00:00,2022-12-31 00:00:00,2023-11-29 22:49:36.238141,,,"{6119,7061}"
3144233,Shandong Super Energy Industrial Co Refinery,CHN,oil-and-gas-refining,37.075939,118.342402,trace_118.342402_37.075939,owner,Shandong Shangneng Investment Holding Group,100000127636.0,83.2,Shandong Super Energy Industrial,100000126990,100.0,real_property_refinery,2022-01-01 00:00:00,2022-12-31 00:00:00,2023-11-29 22:49:36.238174,,,"{6119,7061}"
3144217,Shandong Yuhuang Refinery,CHN,oil-and-gas-refining,35.247443,115.573324,trace_115.573324_35.247443,owner,other,100000001753.0,4.15,Shandong Yuhuang Shengshi Chemical,100000127385,100.0,real_property_refinery,2022-01-01 00:00:00,2022-12-31 00:00:00,2023-11-29 22:49:36.237517,,,"{6119,7061}"
3144217,Shandong Yuhuang Refinery,CHN,oil-and-gas-refining,35.247443,115.573324,trace_115.573324_35.247443,owner,Shandong Yuhuang Chemical,100000123775.0,95.85,Shandong Yuhuang Shengshi Chemical,100000127385,100.0,real_property_refinery,2022-01-01 00:00:00,2022-12-31 00:00:00,2023-11-29 22:49:36.237501,,,"{6119,7061}"
3144267,Shangdong Zhonghai Petrochemical Refinery,CHN,oil-and-gas-refining,37.893655,118.685157,trace_118.685157_37.893655,owner,Shangdong Zhonghai Petrochemical,100001014779.0,100.0,Shangdong Zhonghai Petrochemical,100001014779,100.0,real_property_refinery,2022-01-01 00:00:00,2022-12-31 00:00:00,2023-11-29 22:49:36.239188,,,{7061}
3144194,Shenchi Dongying Refinery,CHN,oil-and-gas-refining,38.097525,118.880401,trace_118.880401_38.097525,owner,Shenchi Chemical,100001014765.0,100.0,Shenchi Chemical,100001014765,100.0,real_property_refinery,2022-01-01 00:00:00,2022-12-31 00:00:00,2023-11-29 22:49:36.236794,,,{7061}
3143829,Shenghong Lianyungang Refinery,CHN,oil-and-gas-refining,34.559235,119.59325,trace_119.59325_34.559235,owner,Shenghong Refining &Chemical,100001014657.0,100.0,Shenghong Refining &Chemical,100001014657,100.0,real_property_refinery,2022-01-01 00:00:00,2022-12-31 00:00:00,2023-11-29 22:49:36.229528,,,{7061}
3144188,Shengxing Dongying Refinery,CHN,oil-and-gas-refining,36.999651,118.544785,trace_118.544785_36.999651,owner,other,100000001753.0,1.0,Shandong Shengxing Chemical,100000126943,100.0,real_property_refinery,2022-01-01 00:00:00,2022-12-31 00:00:00,2023-11-29 22:49:36.236604,,,"{6119,7061}"
3144188,Shengxing Dongying Refinery,CHN,oil-and-gas-refining,36.999651,118.544785,trace_118.544785_36.999651,owner,Guangrao Shengxing Trading,100000127665.0,99.0,Shandong Shengxing Chemical,100000126943,100.0,real_property_refinery,2022-01-01 00:00:00,2022-12-31 00:00:00,2023-11-29 22:49:36.236588,,,"{6119,7061}"
3144251,Shenyang PARAFFIN-WAX Chemical Refinery,CHN,oil-and-gas-refining,41.7879,123.2621,trace_123.2621_41.7879,owner,Shenyang Chemical Group,100000128053.0,100.0,Shenyang PARAFFIN-WAX Chemical,100000126432,100.0,real_property_refinery,2022-01-01 00:00:00,2022-12-31 00:00:00,2023-11-29 22:49:36.238736,,,"{6119,7061}"
3143841,Sinochem Hongrun Weifang Petrochemical Refinery,CHN,oil-and-gas-refining,36.81136,118.537369,trace_118.537369_36.81136,owner,Sinochem,100000125818.0,100.0,Sinochem,100000125818,100.0,real_property_refinery,2022-01-01 00:00:00,2022-12-31 00:00:00,2023-11-29 22:49:36.229811,,,{7061}
3143818,Sinochem Quanzhou Refinery,CHN,oil-and-gas-refining,25.049256,118.892947,trace_118.892947_25.049256,owner,other,100000001753.0,4.481585999999999,Sinochem Quanzhou Petrochemical,100000127114,100.0,real_property_refinery,2022-01-01 00:00:00,2022-12-31 00:00:00,2023-11-29 22:49:36.229291,,,"{6119,7061}"
3143818,Sinochem Quanzhou Refinery,CHN,oil-and-gas-refining,25.049256,118.892947,trace_118.892947_25.049256,owner,Sinochem,100000125818.0,43.13043,Sinochem Quanzhou Petrochemical,100000127114,100.0,real_property_refinery,2022-01-01 00:00:00,2022-12-31 00:00:00,2023-11-29 22:49:36.229309,,,"{6119,7061}"
3143818,Sinochem Quanzhou Refinery,CHN,oil-and-gas-refining,25.049256,118.892947,trace_118.892947_25.049256,owner,Agricultural Bank of China Investment,100000125819.0,4.779990000000001,Sinochem Quanzhou Petrochemical,100000127114,100.0,real_property_refinery,2022-01-01 00:00:00,2022-12-31 00:00:00,2023-11-29 22:49:36.229334,,,"{6119,7061}"
3143818,Sinochem Quanzhou Refinery,CHN,oil-and-gas-refining,25.049256,118.892947,trace_118.892947_25.049256,owner,ICBC Investment,100000125820.0,2.867994,Sinochem Quanzhou Petrochemical,100000127114,100.0,real_property_refinery,2022-01-01 00:00:00,2022-12-31 00:00:00,2023-11-29 22:49:36.229352,,,"{6119,7061}"
3143800,Sinopec Anqing Company Refinery,CHN,oil-and-gas-refining,30.5286,117.01962,trace_117.01962_30.5286,owner,Sinopec,100001010970.0,100.0,Sinopec,100001010970,100.0,real_property_refinery,2022-01-01 00:00:00,2022-12-31 00:00:00,2023-11-29 22:49:36.229005,,,{7061}
3144180,Sinopec Baling Yueyang Refinery,CHN,oil-and-gas-refining,29.372877,113.162716,trace_113.162716_29.372877,owner,Sinopec,100001010970.0,100.0,Sinopec,100001010970,100.0,real_property_refinery,2022-01-01 00:00:00,2022-12-31 00:00:00,2023-11-29 22:49:36.236308,,,{7061}
3143810,Sinopec Beihai Company Refinery,CHN,oil-and-gas-refining,21.500001,109.515918,trace_109.515918_21.500001,owner,Sinopec,100001010970.0,100.0,Sinopec,100001010970,100.0,real_property_refinery,2022-01-01 00:00:00,2022-12-31 00:00:00,2023-11-29 22:49:36.229161,,,{7061}
3143808,Sinopec Cangzhou Company Refinery,CHN,oil-and-gas-refining,38.33889,116.87434,trace_116.87434_38.33889,owner,Sinopec,100001010970.0,100.0,Sinopec,100001010970,100.0,real_property_refinery,2022-01-01 00:00:00,2022-12-31 00:00:00,2023-11-29 22:49:36.22913,,,{7061}
3144199,Sinopec Cangzhou Refinery,CHN,oil-and-gas-refining,38.337481,116.874756,trace_116.874756_38.337481,owner,Sinopec,100001010970.0,100.0,Sinopec,100001010970,100.0,real_property_refinery,2022-01-01 00:00:00,2022-12-31 00:00:00,2023-11-29 22:49:36.237018,,,{7061}
3143811,Sinopec Fujian Refinery,CHN,oil-and-gas-refining,25.176552,118.934066,trace_118.934066_25.176552,owner,Sinopec,100001010970.0,100.0,Sinopec,100001010970,100.0,real_property_refinery,2022-01-01 00:00:00,2022-12-31 00:00:00,2023-11-29 22:49:36.229177,,,{7061}
3143812,Sinopec Hainan Refinery,CHN,oil-and-gas-refining,19.820693,109.196208,trace_109.196208_19.820693,owner,Sinopec,100001010970.0,100.0,Sinopec,100001010970,100.0,real_property_refinery,2022-01-01 00:00:00,2022-12-31 00:00:00,2023-11-29 22:49:36.229193,,,{7061}
3144177,Sinopec Henan Refinery,CHN,oil-and-gas-refining,32.674921,112.603759,trace_112.603759_32.674921,owner,Sinopec,100001010970.0,100.0,Sinopec,100001010970,100.0,real_property_refinery,2022-01-01 00:00:00,2022-12-31 00:00:00,2023-11-29 22:49:36.236265,,,{7061}
3143809,Sinopec Jinan Company,CHN,oil-and-gas-refining,36.73766,117.17723,trace_117.17723_36.73766,owner,Sinopec,100001010970.0,100.0,Sinopec,100001010970,100.0,real_property_refinery,2022-01-01 00:00:00,2022-12-31 00:00:00,2023-11-29 22:49:36.229145,,,{7061}
3143828,Sinopec Jinling Nanjing Refinery,CHN,oil-and-gas-refining,32.1666939402809,118.92148809419,trace_118.92148809419_32.1666939402809,owner,Sinopec,100001010970.0,100.0,Sinopec,100001010970,100.0,real_property_refinery,2022-01-01 00:00:00,2022-12-31 00:00:00,2023-11-29 22:49:36.229512,,,{7061}
3143806,Sinopec Jiujiang Company Refinery,CHN,oil-and-gas-refining,29.73893,116.06622,trace_116.06622_29.73893,owner,Sinopec,100001010970.0,100.0,Sinopec,100001010970,100.0,real_property_refinery,2022-01-01 00:00:00,2022-12-31 00:00:00,2023-11-29 22:49:36.229099,,,{7061}
3143815,Sinopec Qingdao Refinery,CHN,oil-and-gas-refining,36.213682,120.364169,trace_120.364169_36.213682,owner,Sinopec,100001010970.0,100.0,Sinopec,100001010970,100.0,real_property_refinery,2022-01-01 00:00:00,2022-12-31 00:00:00,2023-11-29 22:49:36.22924,,,{7061}
3144182,Sinopec Shengli Refinery,CHN,oil-and-gas-refining,36.761237,118.261141,trace_118.261141_36.761237,owner,Sinopec,100001010970.0,100.0,Sinopec,100001010970,100.0,real_property_refinery,2022-01-01 00:00:00,2022-12-31 00:00:00,2023-11-29 22:49:36.236336,,,{7061}
3143813,Sinopec Shijiazhuang Refinery,CHN,oil-and-gas-refining,37.977354,114.67362,trace_114.67362_37.977354,owner,Sinopec,100001010970.0,100.0,Sinopec,100001010970,100.0,real_property_refinery,2022-01-01 00:00:00,2022-12-31 00:00:00,2023-11-29 22:49:36.229209,,,{7061}
3143822,Sinopec Tahe Akesu Refinery,CHN,oil-and-gas-refining,41.710398,83.043143,trace_83.043143_41.710398,owner,Sinopec,100001010970.0,100.0,Sinopec,100001010970,100.0,real_property_refinery,2022-01-01 00:00:00,2022-12-31 00:00:00,2023-11-29 22:49:36.229414,,,{7061}
3144193,Sinopec Taizhou Refinery,CHN,oil-and-gas-refining,32.512061,119.879615,trace_119.879615_32.512061,owner,Sinopec,100001010970.0,100.0,Sinopec,100001010970,100.0,real_property_refinery,2022-01-01 00:00:00,2022-12-31 00:00:00,2023-11-29 22:49:36.23678,,,{7061}
3143819,Sinopec Yangpu Refinery,CHN,oil-and-gas-refining,19.76233,109.179533,trace_109.179533_19.76233,owner,Sinopec,100001010970.0,100.0,Sinopec,100001010970,100.0,real_property_refinery,2022-01-01 00:00:00,2022-12-31 00:00:00,2023-11-29 22:49:36.229367,,,{7061}
3143823,Sinopec Yangzi Nanjing Petrochemical Refinery,CHN,oil-and-gas-refining,32.245878,118.803988,trace_118.803988_32.245878,owner,Sinopec,100001010970.0,100.0,Sinopec,100001010970,100.0,real_property_refinery,2022-01-01 00:00:00,2022-12-31 00:00:00,2023-11-29 22:49:36.229433,,,{7061}
3143814,Sinopec Zhanjiang Refinery,CHN,oil-and-gas-refining,21.157182,110.377869,trace_110.377869_21.157182,owner,Sinopec,100001010970.0,100.0,Sinopec,100001010970,100.0,real_property_refinery,2022-01-01 00:00:00,2022-12-31 00:00:00,2023-11-29 22:49:36.229224,,,{7061}
3144218,Sinopec ZhongKe (Guangdong) Refinery,CHN,oil-and-gas-refining,21.050818,110.456395,trace_110.456395_21.050818,owner,Sinopec & Kuwait Petroleum,100001014769.0,100.0,Sinopec & Kuwait Petroleum,100001014769,100.0,real_property_refinery,2022-01-01 00:00:00,2022-12-31 00:00:00,2023-11-29 22:49:36.237531,,,{7061}
3144178,Sinopec Zhongyuan Puyang Refinery,CHN,oil-and-gas-refining,35.764436,114.979352,trace_114.979352_35.764436,owner,Sionpec,100001014762.0,100.0,Sionpec,100001014762,100.0,real_property_refinery,2022-01-01 00:00:00,2022-12-31 00:00:00,2023-11-29 22:49:36.236279,,,{7061}
3143821,Sinopec Zhongyuan Refinery,CHN,oil-and-gas-refining,35.763159,114.979805,trace_114.979805_35.763159,owner,Sinopec,100001010970.0,100.0,Sinopec,100001010970,100.0,real_property_refinery,2022-01-01 00:00:00,2022-12-31 00:00:00,2023-11-29 22:49:36.229398,,,{7061}
3143848,Tianhong Chemical (Dongying),CHN,oil-and-gas-refining,38.08565,118.888671,trace_118.888671_38.08565,owner,persons,100000123261.0,7.793239090000001,Shandong Tianhong Chemical,100000126849,100.0,real_property_refinery,2022-01-01 00:00:00,2022-12-31 00:00:00,2023-11-29 22:49:36.230132,,,"{6119,7061}"
3143848,Tianhong Chemical (Dongying),CHN,oil-and-gas-refining,38.08565,118.888671,trace_118.888671_38.08565,owner,China Wanda Group,100000123760.0,3.1167,Shandong Tianhong Chemical,100000126849,100.0,real_property_refinery,2022-01-01 00:00:00,2022-12-31 00:00:00,2023-11-29 22:49:36.230114,,,"{6119,7061}"
3143848,Tianhong Chemical (Dongying),CHN,oil-and-gas-refining,38.08565,118.888671,trace_118.888671_38.08565,owner,Shandong Hongxu Chemical,100000127628.0,7.24,Shandong Tianhong Chemical,100000126849,100.0,real_property_refinery,2022-01-01 00:00:00,2022-12-31 00:00:00,2023-11-29 22:49:36.230167,,,"{6119,7061}"
3143848,Tianhong Chemical (Dongying),CHN,oil-and-gas-refining,38.08565,118.888671,trace_118.888671_38.08565,owner,other shareholders,100000130411.0,7.887778990000002,Shandong Tianhong Chemical,100000126849,100.0,real_property_refinery,2022-01-01 00:00:00,2022-12-31 00:00:00,2023-11-29 22:49:36.230149,,,"{6119,7061}"
3143837,Wantong Dongying Petrochemical Refinery,CHN,oil-and-gas-refining,37.42045,118.36705,trace_118.36705_37.42045,owner,other,100000001753.0,10.89,Shandong Wantong Petro-chemical Group,100000126995,100.0,real_property_refinery,2022-01-01 00:00:00,2022-12-31 00:00:00,2023-11-29 22:49:36.229716,,,"{6119,7061}"
3143837,Wantong Dongying Petrochemical Refinery,CHN,oil-and-gas-refining,37.42045,118.36705,trace_118.36705_37.42045,owner,Wantong Haixin Holding Group,100000127621.0,89.11,Shandong Wantong Petro-chemical Group,100000126995,100.0,real_property_refinery,2022-01-01 00:00:00,2022-12-31 00:00:00,2023-11-29 22:49:36.229698,,,"{6119,7061}"
3144254,Weifang Shi Da Chang Sheng Energy Technology Refinery,CHN,oil-and-gas-refining,37.0915,119.0631,trace_119.0631_37.0915,owner,Weifang Shi Da Chang Sheng Energy Technology,100001014778.0,100.0,Weifang Shi Da Chang Sheng Energy Technology,100001014778,100.0,real_property_refinery,2022-01-01 00:00:00,2022-12-31 00:00:00,2023-11-29 22:49:36.238815,,,{7061}
3144190,Wudi Xinyue Binzhou Refinery,CHN,oil-and-gas-refining,38.094904,117.769237,trace_117.769237_38.094904,owner,Wudi Xinyue Chemical Group,100000123982.0,40.0,Wudi XINYUE Fuel Chemical,100000126472,100.0,real_property_refinery,2022-01-01 00:00:00,2022-12-31 00:00:00,2023-11-29 22:49:36.236668,,,"{6119,7061}"
3144190,Wudi Xinyue Binzhou Refinery,CHN,oil-and-gas-refining,38.094904,117.769237,trace_117.769237_38.094904,owner,Shengheng Yongjia International Trade (Qingdao),100000128016.0,60.0,Wudi XINYUE Fuel Chemical,100000126472,100.0,real_property_refinery,2022-01-01 00:00:00,2022-12-31 00:00:00,2023-11-29 22:49:36.236652,,,"{6119,7061}"
3144183,Xintai Zibo Refinery,CHN,oil-and-gas-refining,36.930888,118.304388,trace_118.304388_36.930888,owner,Zibo Xintai Chemical,100000126692.0,100.0,Zibo Xintai Chemical,100000126692,100.0,real_property_refinery,2022-01-01 00:00:00,2022-12-31 00:00:00,2023-11-29 22:49:36.236352,,,"{6119,7061}"
3143842,Yangchang Shaanxi Yan'an Refinery,CHN,oil-and-gas-refining,36.685359,109.848359,trace_109.848359_36.685359,owner,Shaanxi Yanchang PetroleumYulin Oil Refinery,100001014663.0,100.0,Shaanxi Yanchang PetroleumYulin Oil Refinery,100001014663,100.0,real_property_refinery,2022-01-01 00:00:00,2022-12-31 00:00:00,2023-11-29 22:49:36.229828,,,{7061}
3143834,Yangchang Shaanxi Yulin Refinery,CHN,oil-and-gas-refining,37.649938,108.911856,trace_108.911856_37.649938,owner,Shaanxi Yanchang PetroleumYongping Oil Refinery,100001014659.0,100.0,Shaanxi Yanchang PetroleumYongping Oil Refinery,100001014659,100.0,real_property_refinery,2022-01-01 00:00:00,2022-12-31 00:00:00,2023-11-29 22:49:36.229648,,,{7061}
3144208,Yangchang Yongping Refinery,CHN,oil-and-gas-refining,37.00351,109.839396,trace_109.839396_37.00351,owner,Yangchang Petroleum,100001014767.0,100.0,Yangchang Petroleum,100001014767,100.0,real_property_refinery,2022-01-01 00:00:00,2022-12-31 00:00:00,2023-11-29 22:49:36.237368,,,{7061}
3144201,Yatong Dongying Refinery,CHN,oil-and-gas-refining,38.087581,118.879351,trace_118.879351_38.087581,owner,Dongying Yatong Petrochemical,100000127661.0,100.0,Dongying Yatong Petrochemical,100000127661,100.0,real_property_refinery,2022-01-01 00:00:00,2022-12-31 00:00:00,2023-11-29 22:49:36.237082,,,"{6119,7061}"
3143817,ZPC Zhejiang Rongsheng Refinery,CHN,oil-and-gas-refining,30.319018,121.952931,trace_121.952931_30.319018,owner,Rongsheng,100001014656.0,100.0,Rongsheng,100001014656,100.0,real_property_refinery,2022-01-01 00:00:00,2022-12-31 00:00:00,2023-11-29 22:49:36.229274,,,{7061}
3143847,Zhenghe Dongying Refinery,CHN,oil-and-gas-refining,37.131896,118.420873,trace_118.420873_37.131896,owner,other,100000001753.0,3.3000000000000003,Zhenghe Group,100000126865,100.0,real_property_refinery,2022-01-01 00:00:00,2022-12-31 00:00:00,2023-11-29 22:49:36.230097,,,"{6119,7061}"
3143847,Zhenghe Dongying Refinery,CHN,oil-and-gas-refining,37.131896,118.420873,trace_118.420873_37.131896,owner,Sinochem Holdings Corporation,100000125246.0,29.01,Zhenghe Group,100000126865,100.0,real_property_refinery,2022-01-01 00:00:00,2022-12-31 00:00:00,2023-11-29 22:49:36.230079,,,"{6119,7061}"
3143847,Zhenghe Dongying Refinery,CHN,oil-and-gas-refining,37.131896,118.420873,trace_118.420873_37.131896,owner,China Chengtong Holdings Group,100001000473.0,38.68000000000001,Zhenghe Group,100000126865,100.0,real_property_refinery,2022-01-01 00:00:00,2022-12-31 00:00:00,2023-11-29 22:49:36.230043,,,"{6119,7061}"
3143847,Zhenghe Dongying Refinery,CHN,oil-and-gas-refining,37.131896,118.420873,trace_118.420873_37.131896,owner,China Guoxin Holding,100001000475.0,29.01,Zhenghe Group,100000126865,100.0,real_property_refinery,2022-01-01 00:00:00,2022-12-31 00:00:00,2023-11-29 22:49:36.230062,,,"{6119,7061}"
3144210,Zhonghai Asphalt Binzhou Refinery,CHN,oil-and-gas-refining,37.386882,118.061304,trace_118.061304_37.386882,owner,China Offshore Bitumen,100000126129.0,100.0,China Offshore Bitumen,100000126129,100.0,real_property_refinery,2022-01-01 00:00:00,2022-12-31 00:00:00,2023-11-29 22:49:36.237397,,,{7061}
3144257,Zhonghai Asphalt Sichuan Refinery,CHN,oil-and-gas-refining,28.8858,105.5344,trace_105.5344_28.8858,owner,China National Offshore Oil,100000000172.0,40.54,Zhonghai Asphalt Sichuan,100000126631,100.0,real_property_refinery,2022-01-01 00:00:00,2022-12-31 00:00:00,2023-11-29 22:49:36.238897,,,"{6119,7061}"
